{"type":"FeatureCollection","features":[{"type":"Feature","properties":{"SAL_CODE21":"10001","SAL_NAME21":"Aarons Pass","STE_CODE21":"1","STE_NAME21":"New South Wales","AUS_CODE21":"AUS","AUS_NAME21":"Australia","AREASQKM21":82.7639,"LOCI_URI21":"http://linked.data.gov.au/dataset/asgsed3/SAL/10001","SHAPE_Leng":0.554240905208,"SHAPE_Area":0.00797470578227,"fill":"#ff9da7"},"geometry":{"type":"Point","coordinates":[149.804865,-32.874595]}},{"type":"Feature","properties":{"SAL_CODE21":"10002","SAL_NAME21":"Abbotsbury","STE_CODE21":"1","STE_NAME21":"New South Wales","AUS_CODE21":"AUS","AUS_NAME21":"Australia","AREASQKM21":4.9788,"LOCI_URI21":"http://linked.data.gov.au/dataset/asgsed3/SAL/10002","SHAPE_Leng":0.123050586753,"SHAPE_Area":0.000485101612911,"fill":"#edc949"},"geometry":{"type":"Point","coordinates":[150.85951,-33.865115]}},{"type":"Feature","properties":{"SAL_CODE21":"10003","SAL_NAME21":"Abbotsford (NSW)","STE_CODE21":"1","STE_NAME21":"New South Wales","AUS_CODE21":"AUS","AUS_NAME21":"Australia","AREASQKM21":1.018,"LOCI_URI21":"http://linked.data.gov.au/dataset/asgsed3/SAL/10003","SHAPE_Leng":0.0534228593618,"SHAPE_Area":0.0000991574913106,"fill":"#ff9da7"},"geometry":{"type":"Point","coordinates":[151.12988,-33.85052]}},{"type":"Feature","properties":{"SAL_CODE21":"10004","SAL_NAME21":"Abercrombie","STE_CODE21":"1","STE_NAME21":"New South Wales","AUS_CODE21":"AUS","AUS_NAME21":"Australia","AREASQKM21":2.9775,"LOCI_URI21":"http://linked.data.gov.au/dataset/asgsed3/SAL/10004","SHAPE_Leng":0.0973382121699,"SHAPE_Area":0.000288549289124,"fill":"#ff9da7"},"geometry":{"type":"Point","coordinates":[149.55367999999999,-33.392035]}},{"type":"Feature","properties":{"SAL_CODE21":"10005","SAL_NAME21":"Abercrombie River","STE_CODE21":"1","STE_NAME21":"New South Wales","AUS_CODE21":"AUS","AUS_NAME21":"Australia","AREASQKM21":127.1701,"LOCI_URI21":"http://linked.data.gov.au/dataset/asgsed3/SAL/10005","SHAPE_Leng":0.848902539951,"SHAPE_Area":0.0123970048308,"fill":"#59a14f"},"geometry":{"type":"Point","coordinates":[149.332655,-33.911765]}},{"type":"Feature","properties":{"SAL_CODE21":"10006","SAL_NAME21":"Aberdare","STE_CODE21":"1","STE_NAME21":"New South Wales","AUS_CODE21":"AUS","AUS_NAME21":"Australia","AREASQKM21":3.2961,"LOCI_URI21":"http://linked.data.gov.au/dataset/asgsed3/SAL/10006","SHAPE_Leng":0.097289685172,"SHAPE_Area":0.000317463409698,"fill":"#e15759"},"geometry":{"type":"Point","coordinates":[151.379575,-32.838865]}},{"type":"Feature","properties":{"SAL_CODE21":"10007","SAL_NAME21":"Aberdeen (NSW)","STE_CODE21":"1","STE_NAME21":"New South Wales","AUS_CODE21":"AUS","AUS_NAME21":"Australia","AREASQKM21":41.6327,"LOCI_URI21":"http://linked.data.gov.au/dataset/asgsed3/SAL/10007","SHAPE_Leng":0.444264837553,"SHAPE_Area":0.00398074338862,"fill":"#af7aa1"},"geometry":{"type":"Point","coordinates":[150.897605,-32.170485]}},{"type":"Feature","properties":{"SAL_CODE21":"10008","SAL_NAME21":"Aberfoyle","STE_CODE21":"1","STE_NAME21":"New South Wales","AUS_CODE21":"AUS","AUS_NAME21":"Australia","AREASQKM21":340.4792,"LOCI_URI21":"http://linked.data.gov.au/dataset/asgsed3/SAL/10008","SHAPE_Leng":1.30738827422,"SHAPE_Area":0.0319078772235,"fill":"#76b7b2"},"geometry":{"type":"Point","coordinates":[151.98515,-30.23694]}},{"type":"Feature","properties":{"SAL_CODE21":"10009","SAL_NAME21":"Aberglasslyn","STE_CODE21":"1","STE_NAME21":"New South Wales","AUS_CODE21":"AUS","AUS_NAME21":"Australia","AREASQKM21":6.2154,"LOCI_URI21":"http://linked.data.gov.au/dataset/asgsed3/SAL/10009","SHAPE_Leng":0.119584524191,"SHAPE_Area":0.000597634451584,"fill":"#76b7b2"},"geometry":{"type":"Point","coordinates":[151.53177,-32.69355]}},{"type":"Feature","properties":{"SAL_CODE21":"10010","SAL_NAME21":"Abermain","STE_CODE21":"1","STE_NAME21":"New South Wales","AUS_CODE21":"AUS","AUS_NAME21":"Australia","AREASQKM21":15.3822,"LOCI_URI21":"http://linked.data.gov.au/dataset/asgsed3/SAL/10010","SHAPE_Leng":0.228436412167,"SHAPE_Area":0.0014811768324,"fill":"#76b7b2"},"geometry":{"type":"Point","coordinates":[151.43614,-32.82297]}},{"type":"Feature","properties":{"SAL_CODE21":"10011","SAL_NAME21":"Abernethy","STE_CODE21":"1","STE_NAME21":"New South Wales","AUS_CODE21":"AUS","AUS_NAME21":"Australia","AREASQKM21":8.4025,"LOCI_URI21":"http://linked.data.gov.au/dataset/asgsed3/SAL/10011","SHAPE_Leng":0.158941807792,"SHAPE_Area":0.00080969625344,"fill":"#ff9da7"},"geometry":{"type":"Point","coordinates":[151.40196500000002,-32.88589]}},{"type":"Feature","properties":{"SAL_CODE21":"10012","SAL_NAME21":"Abington (NSW)","STE_CODE21":"1","STE_NAME21":"New South Wales","AUS_CODE21":"AUS","AUS_NAME21":"Australia","AREASQKM21":174.3142,"LOCI_URI21":"http://linked.data.gov.au/dataset/asgsed3/SAL/10012","SHAPE_Leng":0.776545440248,"SHAPE_Area":0.0163491411698,"fill":"#ff9da7"},"geometry":{"type":"Point","coordinates":[151.240625,-30.326729999999998]}},{"type":"Feature","properties":{"SAL_CODE21":"10013","SAL_NAME21":"Acacia Creek","STE_CODE21":"1","STE_NAME21":"New South Wales","AUS_CODE21":"AUS","AUS_NAME21":"Australia","AREASQKM21":6.261,"LOCI_URI21":"http://linked.data.gov.au/dataset/asgsed3/SAL/10013","SHAPE_Leng":0.128626369901,"SHAPE_Area":0.000576367598394,"fill":"#edc949"},"geometry":{"type":"Point","coordinates":[152.319865,-28.37623]}},{"type":"Feature","properties":{"SAL_CODE21":"10014","SAL_NAME21":"Acacia Gardens","STE_CODE21":"1","STE_NAME21":"New South Wales","AUS_CODE21":"AUS","AUS_NAME21":"Australia","AREASQKM21":1.0013,"LOCI_URI21":"http://linked.data.gov.au/dataset/asgsed3/SAL/10014","SHAPE_Leng":0.0445578450037,"SHAPE_Area":0.0000974072546732,"fill":"#4e79a7"},"geometry":{"type":"Point","coordinates":[150.91377,-33.7341]}},{"type":"Feature","properties":{"SAL_CODE21":"10015","SAL_NAME21":"Adaminaby","STE_CODE21":"1","STE_NAME21":"New South Wales","AUS_CODE21":"AUS","AUS_NAME21":"Australia","AREASQKM21":356.4961,"LOCI_URI21":"http://linked.data.gov.au/dataset/asgsed3/SAL/10015","SHAPE_Leng":1.23920193186,"SHAPE_Area":0.0356390140175,"fill":"#af7aa1"},"geometry":{"type":"Point","coordinates":[148.7821,-36.00744]}},{"type":"Feature","properties":{"SAL_CODE21":"10016","SAL_NAME21":"Adamstown","STE_CODE21":"1","STE_NAME21":"New South Wales","AUS_CODE21":"AUS","AUS_NAME21":"Australia","AREASQKM21":3.051,"LOCI_URI21":"http://linked.data.gov.au/dataset/asgsed3/SAL/10016","SHAPE_Leng":0.104067936399,"SHAPE_Area":0.000294192270437,"fill":"#59a14f"},"geometry":{"type":"Point","coordinates":[151.72549500000002,-32.939195]}},{"type":"Feature","properties":{"SAL_CODE21":"10017","SAL_NAME21":"Adamstown Heights","STE_CODE21":"1","STE_NAME21":"New South Wales","AUS_CODE21":"AUS","AUS_NAME21":"Australia","AREASQKM21":2.394,"LOCI_URI21":"http://linked.data.gov.au/dataset/asgsed3/SAL/10017","SHAPE_Leng":0.0985005094506,"SHAPE_Area":0.000230823433779,"fill":"#76b7b2"},"geometry":{"type":"Point","coordinates":[151.70970499999999,-32.94879]}},{"type":"Feature","properties":{"SAL_CODE21":"10018","SAL_NAME21":"Adelong","STE_CODE21":"1","STE_NAME21":"New South Wales","AUS_CODE21":"AUS","AUS_NAME21":"Australia","AREASQKM21":20.2697,"LOCI_URI21":"http://linked.data.gov.au/dataset/asgsed3/SAL/10018","SHAPE_Leng":0.284672858571,"SHAPE_Area":0.00200885694323,"fill":"#59a14f"},"geometry":{"type":"Point","coordinates":[148.069275,-35.30657]}},{"type":"Feature","properties":{"SAL_CODE21":"10019","SAL_NAME21":"Adjungbilly","STE_CODE21":"1","STE_NAME21":"New South Wales","AUS_CODE21":"AUS","AUS_NAME21":"Australia","AREASQKM21":438.1006,"LOCI_URI21":"http://linked.data.gov.au/dataset/asgsed3/SAL/10019","SHAPE_Leng":1.52456751907,"SHAPE_Area":0.0432798294566,"fill":"#4e79a7"},"geometry":{"type":"Point","coordinates":[148.421825,-35.031525]}},{"type":"Feature","properties":{"SAL_CODE21":"10020","SAL_NAME21":"Afterlee","STE_CODE21":"1","STE_NAME21":"New South Wales","AUS_CODE21":"AUS","AUS_NAME21":"Australia","AREASQKM21":34.7839,"LOCI_URI21":"http://linked.data.gov.au/dataset/asgsed3/SAL/10020","SHAPE_Leng":0.3495181803,"SHAPE_Area":0.00320793273127,"fill":"#9c755f"},"geometry":{"type":"Point","coordinates":[152.82554,-28.56953]}},{"type":"Feature","properties":{"SAL_CODE21":"10021","SAL_NAME21":"Agnes Banks","STE_CODE21":"1","STE_NAME21":"New South Wales","AUS_CODE21":"AUS","AUS_NAME21":"Australia","AREASQKM21":15.475,"LOCI_URI21":"http://linked.data.gov.au/dataset/asgsed3/SAL/10021","SHAPE_Leng":0.215383472111,"SHAPE_Area":0.00150359462929,"fill":"#76b7b2"},"geometry":{"type":"Point","coordinates":[150.699105,-33.616545]}},{"type":"Feature","properties":{"SAL_CODE21":"10022","SAL_NAME21":"Airds","STE_CODE21":"1","STE_NAME21":"New South Wales","AUS_CODE21":"AUS","AUS_NAME21":"Australia","AREASQKM21":2.3806,"LOCI_URI21":"http://linked.data.gov.au/dataset/asgsed3/SAL/10022","SHAPE_Leng":0.0718919744322,"SHAPE_Area":0.000232558195976,"fill":"#59a14f"},"geometry":{"type":"Point","coordinates":[150.83302500000002,-34.08592]}},{"type":"Feature","properties":{"SAL_CODE21":"10023","SAL_NAME21":"Akolele","STE_CODE21":"1","STE_NAME21":"New South Wales","AUS_CODE21":"AUS","AUS_NAME21":"Australia","AREASQKM21":5.9502,"LOCI_URI21":"http://linked.data.gov.au/dataset/asgsed3/SAL/10023","SHAPE_Leng":0.157055943005,"SHAPE_Area":0.000597356739456,"fill":"#f28e2c"},"geometry":{"type":"Point","coordinates":[150.07491,-36.349575]}},{"type":"Feature","properties":{"SAL_CODE21":"10024","SAL_NAME21":"Albert","STE_CODE21":"1","STE_NAME21":"New South Wales","AUS_CODE21":"AUS","AUS_NAME21":"Australia","AREASQKM21":690.5799,"LOCI_URI21":"http://linked.data.gov.au/dataset/asgsed3/SAL/10024","SHAPE_Leng":1.51222354085,"SHAPE_Area":0.0661811272173,"fill":"#ff9da7"},"geometry":{"type":"Point","coordinates":[147.47631,-32.380775]}},{"type":"Feature","properties":{"SAL_CODE21":"10025","SAL_NAME21":"Albion Park","STE_CODE21":"1","STE_NAME21":"New South Wales","AUS_CODE21":"AUS","AUS_NAME21":"Australia","AREASQKM21":9.0983,"LOCI_URI21":"http://linked.data.gov.au/dataset/asgsed3/SAL/10025","SHAPE_Leng":0.15624726778,"SHAPE_Area":0.000893882835636,"fill":"#edc949"},"geometry":{"type":"Point","coordinates":[150.77615500000002,-34.582494999999994]}},{"type":"Feature","properties":{"SAL_CODE21":"10026","SAL_NAME21":"Albion Park Rail","STE_CODE21":"1","STE_NAME21":"New South Wales","AUS_CODE21":"AUS","AUS_NAME21":"Australia","AREASQKM21":7.1632,"LOCI_URI21":"http://linked.data.gov.au/dataset/asgsed3/SAL/10026","SHAPE_Leng":0.203199573379,"SHAPE_Area":0.000703595588656,"fill":"#4e79a7"},"geometry":{"type":"Point","coordinates":[150.79708499999998,-34.56164]}},{"type":"Feature","properties":{"SAL_CODE21":"10027","SAL_NAME21":"Albury","STE_CODE21":"1","STE_NAME21":"New South Wales","AUS_CODE21":"AUS","AUS_NAME21":"Australia","AREASQKM21":5.6834,"LOCI_URI21":"http://linked.data.gov.au/dataset/asgsed3/SAL/10027","SHAPE_Leng":0.120973075004,"SHAPE_Area":0.000568644866301,"fill":"#4e79a7"},"geometry":{"type":"Point","coordinates":[146.91573,-36.07351]}},{"type":"Feature","properties":{"SAL_CODE21":"10028","SAL_NAME21":"Aldavilla","STE_CODE21":"1","STE_NAME21":"New South Wales","AUS_CODE21":"AUS","AUS_NAME21":"Australia","AREASQKM21":15.0762,"LOCI_URI21":"http://linked.data.gov.au/dataset/asgsed3/SAL/10028","SHAPE_Leng":0.211869744221,"SHAPE_Area":0.00142491957876,"fill":"#ff9da7"},"geometry":{"type":"Point","coordinates":[152.760225,-31.072850000000003]}},{"type":"Feature","properties":{"SAL_CODE21":"10029","SAL_NAME21":"Alectown","STE_CODE21":"1","STE_NAME21":"New South Wales","AUS_CODE21":"AUS","AUS_NAME21":"Australia","AREASQKM21":277.1442,"LOCI_URI21":"http://linked.data.gov.au/dataset/asgsed3/SAL/10029","SHAPE_Leng":0.841668914162,"SHAPE_Area":0.0267146724402,"fill":"#59a14f"},"geometry":{"type":"Point","coordinates":[148.261125,-32.913030000000006]}},{"type":"Feature","properties":{"SAL_CODE21":"10030","SAL_NAME21":"Alexandria","STE_CODE21":"1","STE_NAME21":"New South Wales","AUS_CODE21":"AUS","AUS_NAME21":"Australia","AREASQKM21":3.537,"LOCI_URI21":"http://linked.data.gov.au/dataset/asgsed3/SAL/10030","SHAPE_Leng":0.102839039103,"SHAPE_Area":0.000344775561688,"fill":"#e15759"},"geometry":{"type":"Point","coordinates":[151.19191,-33.90818]}},{"type":"Feature","properties":{"SAL_CODE21":"10031","SAL_NAME21":"Alfords Point","STE_CODE21":"1","STE_NAME21":"New South Wales","AUS_CODE21":"AUS","AUS_NAME21":"Australia","AREASQKM21":2.5665,"LOCI_URI21":"http://linked.data.gov.au/dataset/asgsed3/SAL/10031","SHAPE_Leng":0.0827868662045,"SHAPE_Area":0.000250411733665,"fill":"#9c755f"},"geometry":{"type":"Point","coordinates":[151.025895,-33.987885]}},{"type":"Feature","properties":{"SAL_CODE21":"10032","SAL_NAME21":"Alfredtown","STE_CODE21":"1","STE_NAME21":"New South Wales","AUS_CODE21":"AUS","AUS_NAME21":"Australia","AREASQKM21":75.0792,"LOCI_URI21":"http://linked.data.gov.au/dataset/asgsed3/SAL/10032","SHAPE_Leng":0.557529156189,"SHAPE_Area":0.00742702909153,"fill":"#76b7b2"},"geometry":{"type":"Point","coordinates":[147.53908,-35.154545]}},{"type":"Feature","properties":{"SAL_CODE21":"10033","SAL_NAME21":"Alice","STE_CODE21":"1","STE_NAME21":"New South Wales","AUS_CODE21":"AUS","AUS_NAME21":"Australia","AREASQKM21":13.2753,"LOCI_URI21":"http://linked.data.gov.au/dataset/asgsed3/SAL/10033","SHAPE_Leng":0.150280234544,"SHAPE_Area":0.00122984614842,"fill":"#76b7b2"},"geometry":{"type":"Point","coordinates":[152.58905,-29.054685]}},{"type":"Feature","properties":{"SAL_CODE21":"10034","SAL_NAME21":"Alison (Central Coast - NSW)","STE_CODE21":"1","STE_NAME21":"New South Wales","AUS_CODE21":"AUS","AUS_NAME21":"Australia","AREASQKM21":1.3958,"LOCI_URI21":"http://linked.data.gov.au/dataset/asgsed3/SAL/10034","SHAPE_Leng":0.0731432207083,"SHAPE_Area":0.00013507309623,"fill":"#59a14f"},"geometry":{"type":"Point","coordinates":[151.396775,-33.27011]}},{"type":"Feature","properties":{"SAL_CODE21":"10035","SAL_NAME21":"Alison (Dungog - NSW)","STE_CODE21":"1","STE_NAME21":"New South Wales","AUS_CODE21":"AUS","AUS_NAME21":"Australia","AREASQKM21":19.2707,"LOCI_URI21":"http://linked.data.gov.au/dataset/asgsed3/SAL/10035","SHAPE_Leng":0.361485768048,"SHAPE_Area":0.00184767260202,"fill":"#e15759"},"geometry":{"type":"Point","coordinates":[151.773035,-32.433949999999996]}},{"type":"Feature","properties":{"SAL_CODE21":"10036","SAL_NAME21":"Allambie Heights","STE_CODE21":"1","STE_NAME21":"New South Wales","AUS_CODE21":"AUS","AUS_NAME21":"Australia","AREASQKM21":6.6746,"LOCI_URI21":"http://linked.data.gov.au/dataset/asgsed3/SAL/10036","SHAPE_Leng":0.130941437996,"SHAPE_Area":0.000649607603648,"fill":"#e15759"},"geometry":{"type":"Point","coordinates":[151.24965,-33.770185]}},{"type":"Feature","properties":{"SAL_CODE21":"10037","SAL_NAME21":"Allandale (NSW)","STE_CODE21":"1","STE_NAME21":"New South Wales","AUS_CODE21":"AUS","AUS_NAME21":"Australia","AREASQKM21":10.4827,"LOCI_URI21":"http://linked.data.gov.au/dataset/asgsed3/SAL/10037","SHAPE_Leng":0.195961443147,"SHAPE_Area":0.00100836439406,"fill":"#4e79a7"},"geometry":{"type":"Point","coordinates":[151.41345,-32.72468]}},{"type":"Feature","properties":{"SAL_CODE21":"10038","SAL_NAME21":"Allawah","STE_CODE21":"1","STE_NAME21":"New South Wales","AUS_CODE21":"AUS","AUS_NAME21":"Australia","AREASQKM21":0.5837,"LOCI_URI21":"http://linked.data.gov.au/dataset/asgsed3/SAL/10038","SHAPE_Leng":0.0398588416931,"SHAPE_Area":0.0000569672032819,"fill":"#bab0ab"},"geometry":{"type":"Point","coordinates":[151.11430000000001,-33.97298]}},{"type":"Feature","properties":{"SAL_CODE21":"10039","SAL_NAME21":"Alleena","STE_CODE21":"1","STE_NAME21":"New South Wales","AUS_CODE21":"AUS","AUS_NAME21":"Australia","AREASQKM21":269.6334,"LOCI_URI21":"http://linked.data.gov.au/dataset/asgsed3/SAL/10039","SHAPE_Leng":0.837926108921,"SHAPE_Area":0.0263406589688,"fill":"#edc949"},"geometry":{"type":"Point","coordinates":[147.13518,-34.092265]}},{"type":"Feature","properties":{"SAL_CODE21":"10040","SAL_NAME21":"Allgomera","STE_CODE21":"1","STE_NAME21":"New South Wales","AUS_CODE21":"AUS","AUS_NAME21":"Australia","AREASQKM21":120.3883,"LOCI_URI21":"http://linked.data.gov.au/dataset/asgsed3/SAL/10040","SHAPE_Leng":0.601185838247,"SHAPE_Area":0.0113485659484,"fill":"#e15759"},"geometry":{"type":"Point","coordinates":[152.80581,-30.81868]}},{"type":"Feature","properties":{"SAL_CODE21":"10041","SAL_NAME21":"Allworth","STE_CODE21":"1","STE_NAME21":"New South Wales","AUS_CODE21":"AUS","AUS_NAME21":"Australia","AREASQKM21":18.2505,"LOCI_URI21":"http://linked.data.gov.au/dataset/asgsed3/SAL/10041","SHAPE_Leng":0.235139193706,"SHAPE_Area":0.00175202327704,"fill":"#59a14f"},"geometry":{"type":"Point","coordinates":[151.94042000000002,-32.544399999999996]}},{"type":"Feature","properties":{"SAL_CODE21":"10042","SAL_NAME21":"Allynbrook","STE_CODE21":"1","STE_NAME21":"New South Wales","AUS_CODE21":"AUS","AUS_NAME21":"Australia","AREASQKM21":34.1815,"LOCI_URI21":"http://linked.data.gov.au/dataset/asgsed3/SAL/10042","SHAPE_Leng":0.326773198949,"SHAPE_Area":0.00327457413058,"fill":"#e15759"},"geometry":{"type":"Point","coordinates":[151.55131999999998,-32.349965]}},{"type":"Feature","properties":{"SAL_CODE21":"10043","SAL_NAME21":"Alma Park","STE_CODE21":"1","STE_NAME21":"New South Wales","AUS_CODE21":"AUS","AUS_NAME21":"Australia","AREASQKM21":87.6845,"LOCI_URI21":"http://linked.data.gov.au/dataset/asgsed3/SAL/10043","SHAPE_Leng":0.538509065602,"SHAPE_Area":0.00872141366944,"fill":"#f28e2c"},"geometry":{"type":"Point","coordinates":[146.796445,-35.599525]}},{"type":"Feature","properties":{"SAL_CODE21":"10044","SAL_NAME21":"Alpine","STE_CODE21":"1","STE_NAME21":"New South Wales","AUS_CODE21":"AUS","AUS_NAME21":"Australia","AREASQKM21":23.0329,"LOCI_URI21":"http://linked.data.gov.au/dataset/asgsed3/SAL/10044","SHAPE_Leng":0.252802414409,"SHAPE_Area":0.00225837011241,"fill":"#76b7b2"},"geometry":{"type":"Point","coordinates":[150.53454,-34.41059]}},{"type":"Feature","properties":{"SAL_CODE21":"10045","SAL_NAME21":"Alstonvale","STE_CODE21":"1","STE_NAME21":"New South Wales","AUS_CODE21":"AUS","AUS_NAME21":"Australia","AREASQKM21":10.2583,"LOCI_URI21":"http://linked.data.gov.au/dataset/asgsed3/SAL/10045","SHAPE_Leng":0.166768847325,"SHAPE_Area":0.000948023766359,"fill":"#f28e2c"},"geometry":{"type":"Point","coordinates":[153.444505,-28.79549]}},{"type":"Feature","properties":{"SAL_CODE21":"10046","SAL_NAME21":"Alstonville","STE_CODE21":"1","STE_NAME21":"New South Wales","AUS_CODE21":"AUS","AUS_NAME21":"Australia","AREASQKM21":28.8249,"LOCI_URI21":"http://linked.data.gov.au/dataset/asgsed3/SAL/10046","SHAPE_Leng":0.322458829783,"SHAPE_Area":0.00266501419412,"fill":"#4e79a7"},"geometry":{"type":"Point","coordinates":[153.44743499999998,-28.83861]}},{"type":"Feature","properties":{"SAL_CODE21":"10047","SAL_NAME21":"Alumy Creek","STE_CODE21":"1","STE_NAME21":"New South Wales","AUS_CODE21":"AUS","AUS_NAME21":"Australia","AREASQKM21":9.0532,"LOCI_URI21":"http://linked.data.gov.au/dataset/asgsed3/SAL/10047","SHAPE_Leng":0.119081118286,"SHAPE_Area":0.000843472662636,"fill":"#ff9da7"},"geometry":{"type":"Point","coordinates":[152.957605,-29.64246]}},{"type":"Feature","properties":{"SAL_CODE21":"10048","SAL_NAME21":"Amaroo (NSW)","STE_CODE21":"1","STE_NAME21":"New South Wales","AUS_CODE21":"AUS","AUS_NAME21":"Australia","AREASQKM21":16.7796,"LOCI_URI21":"http://linked.data.gov.au/dataset/asgsed3/SAL/10048","SHAPE_Leng":0.30888420149,"SHAPE_Area":0.00162194088122,"fill":"#bab0ab"},"geometry":{"type":"Point","coordinates":[148.919465,-33.159485000000004]}},{"type":"Feature","properties":{"SAL_CODE21":"10049","SAL_NAME21":"Ambarvale","STE_CODE21":"1","STE_NAME21":"New South Wales","AUS_CODE21":"AUS","AUS_NAME21":"Australia","AREASQKM21":2.848,"LOCI_URI21":"http://linked.data.gov.au/dataset/asgsed3/SAL/10049","SHAPE_Leng":0.0800850044385,"SHAPE_Area":0.000278188687071,"fill":"#bab0ab"},"geometry":{"type":"Point","coordinates":[150.794085,-34.088985]}},{"type":"Feature","properties":{"SAL_CODE21":"10050","SAL_NAME21":"Amosfield","STE_CODE21":"1","STE_NAME21":"New South Wales","AUS_CODE21":"AUS","AUS_NAME21":"Australia","AREASQKM21":58.0841,"LOCI_URI21":"http://linked.data.gov.au/dataset/asgsed3/SAL/10050","SHAPE_Leng":0.468678499101,"SHAPE_Area":0.00535932425354,"fill":"#9c755f"},"geometry":{"type":"Point","coordinates":[152.07069,-28.63102]}},{"type":"Feature","properties":{"SAL_CODE21":"10051","SAL_NAME21":"Anabranch North","STE_CODE21":"1","STE_NAME21":"New South Wales","AUS_CODE21":"AUS","AUS_NAME21":"Australia","AREASQKM21":1661.3937,"LOCI_URI21":"http://linked.data.gov.au/dataset/asgsed3/SAL/10051","SHAPE_Leng":2.26004600959,"SHAPE_Area":0.160831493699,"fill":"#e15759"},"geometry":{"type":"Point","coordinates":[141.794965,-33.28922]}},{"type":"Feature","properties":{"SAL_CODE21":"10052","SAL_NAME21":"Anabranch South","STE_CODE21":"1","STE_NAME21":"New South Wales","AUS_CODE21":"AUS","AUS_NAME21":"Australia","AREASQKM21":2279.4634,"LOCI_URI21":"http://linked.data.gov.au/dataset/asgsed3/SAL/10052","SHAPE_Leng":2.83815316329,"SHAPE_Area":0.221711574435,"fill":"#76b7b2"},"geometry":{"type":"Point","coordinates":[141.71666,-33.765905000000004]}},{"type":"Feature","properties":{"SAL_CODE21":"10053","SAL_NAME21":"Anambah","STE_CODE21":"1","STE_NAME21":"New South Wales","AUS_CODE21":"AUS","AUS_NAME21":"Australia","AREASQKM21":11.5924,"LOCI_URI21":"http://linked.data.gov.au/dataset/asgsed3/SAL/10053","SHAPE_Leng":0.170864544665,"SHAPE_Area":0.00111453073639,"fill":"#edc949"},"geometry":{"type":"Point","coordinates":[151.491855,-32.680234999999996]}},{"type":"Feature","properties":{"SAL_CODE21":"10054","SAL_NAME21":"Ando","STE_CODE21":"1","STE_NAME21":"New South Wales","AUS_CODE21":"AUS","AUS_NAME21":"Australia","AREASQKM21":112.1626,"LOCI_URI21":"http://linked.data.gov.au/dataset/asgsed3/SAL/10054","SHAPE_Leng":0.576121803096,"SHAPE_Area":0.0113155738414,"fill":"#bab0ab"},"geometry":{"type":"Point","coordinates":[149.29418,-36.725935]}},{"type":"Feature","properties":{"SAL_CODE21":"10055","SAL_NAME21":"Anembo","STE_CODE21":"1","STE_NAME21":"New South Wales","AUS_CODE21":"AUS","AUS_NAME21":"Australia","AREASQKM21":171.8203,"LOCI_URI21":"http://linked.data.gov.au/dataset/asgsed3/SAL/10055","SHAPE_Leng":0.745909918322,"SHAPE_Area":0.017126558983,"fill":"#76b7b2"},"geometry":{"type":"Point","coordinates":[149.44673,-35.780474999999996]}},{"type":"Feature","properties":{"SAL_CODE21":"10056","SAL_NAME21":"Angledale","STE_CODE21":"1","STE_NAME21":"New South Wales","AUS_CODE21":"AUS","AUS_NAME21":"Australia","AREASQKM21":26.8133,"LOCI_URI21":"http://linked.data.gov.au/dataset/asgsed3/SAL/10056","SHAPE_Leng":0.290377898702,"SHAPE_Area":0.00270165228741,"fill":"#e15759"},"geometry":{"type":"Point","coordinates":[149.86830500000002,-36.63355]}},{"type":"Feature","properties":{"SAL_CODE21":"10057","SAL_NAME21":"Angledool","STE_CODE21":"1","STE_NAME21":"New South Wales","AUS_CODE21":"AUS","AUS_NAME21":"Australia","AREASQKM21":689.3144,"LOCI_URI21":"http://linked.data.gov.au/dataset/asgsed3/SAL/10057","SHAPE_Leng":1.35626984417,"SHAPE_Area":0.0639006722769,"fill":"#e15759"},"geometry":{"type":"Point","coordinates":[147.92609,-29.147625]}},{"type":"Feature","properties":{"SAL_CODE21":"10058","SAL_NAME21":"Anglers Reach","STE_CODE21":"1","STE_NAME21":"New South Wales","AUS_CODE21":"AUS","AUS_NAME21":"Australia","AREASQKM21":11.1265,"LOCI_URI21":"http://linked.data.gov.au/dataset/asgsed3/SAL/10058","SHAPE_Leng":0.23004279619,"SHAPE_Area":0.0011123048589,"fill":"#bab0ab"},"geometry":{"type":"Point","coordinates":[148.68634,-36.012280000000004]}},{"type":"Feature","properties":{"SAL_CODE21":"10059","SAL_NAME21":"Angourie","STE_CODE21":"1","STE_NAME21":"New South Wales","AUS_CODE21":"AUS","AUS_NAME21":"Australia","AREASQKM21":3.5357,"LOCI_URI21":"http://linked.data.gov.au/dataset/asgsed3/SAL/10059","SHAPE_Leng":0.128099919257,"SHAPE_Area":0.000328866840733,"fill":"#edc949"},"geometry":{"type":"Point","coordinates":[153.355475,-29.469125]}},{"type":"Feature","properties":{"SAL_CODE21":"10060","SAL_NAME21":"Angus","STE_CODE21":"1","STE_NAME21":"New South Wales","AUS_CODE21":"AUS","AUS_NAME21":"Australia","AREASQKM21":6.0899,"LOCI_URI21":"http://linked.data.gov.au/dataset/asgsed3/SAL/10060","SHAPE_Leng":0.125529032739,"SHAPE_Area":0.000592114684383,"fill":"#9c755f"},"geometry":{"type":"Point","coordinates":[150.833405,-33.684405]}},{"type":"Feature","properties":{"SAL_CODE21":"10061","SAL_NAME21":"Anna Bay","STE_CODE21":"1","STE_NAME21":"New South Wales","AUS_CODE21":"AUS","AUS_NAME21":"Australia","AREASQKM21":22.2502,"LOCI_URI21":"http://linked.data.gov.au/dataset/asgsed3/SAL/10061","SHAPE_Leng":0.317572504683,"SHAPE_Area":0.00214123759788,"fill":"#9c755f"},"geometry":{"type":"Point","coordinates":[152.07448,-32.766355]}},{"type":"Feature","properties":{"SAL_CODE21":"10062","SAL_NAME21":"Annandale (NSW)","STE_CODE21":"1","STE_NAME21":"New South Wales","AUS_CODE21":"AUS","AUS_NAME21":"Australia","AREASQKM21":1.4931,"LOCI_URI21":"http://linked.data.gov.au/dataset/asgsed3/SAL/10062","SHAPE_Leng":0.0568705830684,"SHAPE_Area":0.000145514317188,"fill":"#4e79a7"},"geometry":{"type":"Point","coordinates":[151.16974,-33.87981]}},{"type":"Feature","properties":{"SAL_CODE21":"10063","SAL_NAME21":"Annangrove","STE_CODE21":"1","STE_NAME21":"New South Wales","AUS_CODE21":"AUS","AUS_NAME21":"Australia","AREASQKM21":10.2464,"LOCI_URI21":"http://linked.data.gov.au/dataset/asgsed3/SAL/10063","SHAPE_Leng":0.262063934883,"SHAPE_Area":0.000995963586442,"fill":"#bab0ab"},"geometry":{"type":"Point","coordinates":[150.95163000000002,-33.65544]}},{"type":"Feature","properties":{"SAL_CODE21":"10064","SAL_NAME21":"Appin (NSW)","STE_CODE21":"1","STE_NAME21":"New South Wales","AUS_CODE21":"AUS","AUS_NAME21":"Australia","AREASQKM21":102.055,"LOCI_URI21":"http://linked.data.gov.au/dataset/asgsed3/SAL/10064","SHAPE_Leng":0.54675799214,"SHAPE_Area":0.00998311147536,"fill":"#edc949"},"geometry":{"type":"Point","coordinates":[150.80857,-34.211825]}},{"type":"Feature","properties":{"SAL_CODE21":"10065","SAL_NAME21":"Apple Tree Flat","STE_CODE21":"1","STE_NAME21":"New South Wales","AUS_CODE21":"AUS","AUS_NAME21":"Australia","AREASQKM21":17.0216,"LOCI_URI21":"http://linked.data.gov.au/dataset/asgsed3/SAL/10065","SHAPE_Leng":0.233444406383,"SHAPE_Area":0.0016365110536,"fill":"#ff9da7"},"geometry":{"type":"Point","coordinates":[149.707805,-32.679495]}},{"type":"Feature","properties":{"SAL_CODE21":"10066","SAL_NAME21":"Appleby","STE_CODE21":"1","STE_NAME21":"New South Wales","AUS_CODE21":"AUS","AUS_NAME21":"Australia","AREASQKM21":18.1519,"LOCI_URI21":"http://linked.data.gov.au/dataset/asgsed3/SAL/10066","SHAPE_Leng":0.196113544106,"SHAPE_Area":0.00171362593917,"fill":"#76b7b2"},"geometry":{"type":"Point","coordinates":[150.82204000000002,-30.965175000000002]}},{"type":"Feature","properties":{"SAL_CODE21":"10067","SAL_NAME21":"Appletree Flat","STE_CODE21":"1","STE_NAME21":"New South Wales","AUS_CODE21":"AUS","AUS_NAME21":"Australia","AREASQKM21":28.5322,"LOCI_URI21":"http://linked.data.gov.au/dataset/asgsed3/SAL/10067","SHAPE_Leng":0.262110803065,"SHAPE_Area":0.00273818241177,"fill":"#76b7b2"},"geometry":{"type":"Point","coordinates":[150.85267,-32.516875]}},{"type":"Feature","properties":{"SAL_CODE21":"10068","SAL_NAME21":"Apsley (NSW)","STE_CODE21":"1","STE_NAME21":"New South Wales","AUS_CODE21":"AUS","AUS_NAME21":"Australia","AREASQKM21":28.2301,"LOCI_URI21":"http://linked.data.gov.au/dataset/asgsed3/SAL/10068","SHAPE_Leng":0.356944480558,"SHAPE_Area":0.0027121456035,"fill":"#76b7b2"},"geometry":{"type":"Point","coordinates":[148.96356,-32.612179999999995]}},{"type":"Feature","properties":{"SAL_CODE21":"10069","SAL_NAME21":"Arable","STE_CODE21":"1","STE_NAME21":"New South Wales","AUS_CODE21":"AUS","AUS_NAME21":"Australia","AREASQKM21":116.3272,"LOCI_URI21":"http://linked.data.gov.au/dataset/asgsed3/SAL/10069","SHAPE_Leng":0.613473921189,"SHAPE_Area":0.0116834750244,"fill":"#9c755f"},"geometry":{"type":"Point","coordinates":[148.982785,-36.378119999999996]}},{"type":"Feature","properties":{"SAL_CODE21":"10070","SAL_NAME21":"Arakoon","STE_CODE21":"1","STE_NAME21":"New South Wales","AUS_CODE21":"AUS","AUS_NAME21":"Australia","AREASQKM21":24.794,"LOCI_URI21":"http://linked.data.gov.au/dataset/asgsed3/SAL/10070","SHAPE_Leng":0.33108356409,"SHAPE_Area":0.00233971759863,"fill":"#bab0ab"},"geometry":{"type":"Point","coordinates":[153.068565,-30.91825]}},{"type":"Feature","properties":{"SAL_CODE21":"10071","SAL_NAME21":"Araluen (NSW)","STE_CODE21":"1","STE_NAME21":"New South Wales","AUS_CODE21":"AUS","AUS_NAME21":"Australia","AREASQKM21":121.2736,"LOCI_URI21":"http://linked.data.gov.au/dataset/asgsed3/SAL/10071","SHAPE_Leng":0.728697439647,"SHAPE_Area":0.0120680970487,"fill":"#edc949"},"geometry":{"type":"Point","coordinates":[149.82544000000001,-35.64427]}},{"type":"Feature","properties":{"SAL_CODE21":"10072","SAL_NAME21":"Aratula (NSW)","STE_CODE21":"1","STE_NAME21":"New South Wales","AUS_CODE21":"AUS","AUS_NAME21":"Australia","AREASQKM21":163.3817,"LOCI_URI21":"http://linked.data.gov.au/dataset/asgsed3/SAL/10072","SHAPE_Leng":0.768927080202,"SHAPE_Area":0.0162851870748,"fill":"#9c755f"},"geometry":{"type":"Point","coordinates":[145.28528,-35.774125]}},{"type":"Feature","properties":{"SAL_CODE21":"10073","SAL_NAME21":"Arcadia (NSW)","STE_CODE21":"1","STE_NAME21":"New South Wales","AUS_CODE21":"AUS","AUS_NAME21":"Australia","AREASQKM21":22.4088,"LOCI_URI21":"http://linked.data.gov.au/dataset/asgsed3/SAL/10073","SHAPE_Leng":0.295044568893,"SHAPE_Area":0.00217700586222,"fill":"#af7aa1"},"geometry":{"type":"Point","coordinates":[151.069745,-33.606795000000005]}},{"type":"Feature","properties":{"SAL_CODE21":"10074","SAL_NAME21":"Arcadia Vale","STE_CODE21":"1","STE_NAME21":"New South Wales","AUS_CODE21":"AUS","AUS_NAME21":"Australia","AREASQKM21":1.3455,"LOCI_URI21":"http://linked.data.gov.au/dataset/asgsed3/SAL/10074","SHAPE_Leng":0.0650056099138,"SHAPE_Area":0.000129909816986,"fill":"#9c755f"},"geometry":{"type":"Point","coordinates":[151.57689,-33.05875]}},{"type":"Feature","properties":{"SAL_CODE21":"10075","SAL_NAME21":"Ardglen","STE_CODE21":"1","STE_NAME21":"New South Wales","AUS_CODE21":"AUS","AUS_NAME21":"Australia","AREASQKM21":72.2728,"LOCI_URI21":"http://linked.data.gov.au/dataset/asgsed3/SAL/10075","SHAPE_Leng":0.562996020693,"SHAPE_Area":0.00687752075315,"fill":"#76b7b2"},"geometry":{"type":"Point","coordinates":[150.792655,-31.72627]}},{"type":"Feature","properties":{"SAL_CODE21":"10076","SAL_NAME21":"Arding","STE_CODE21":"1","STE_NAME21":"New South Wales","AUS_CODE21":"AUS","AUS_NAME21":"Australia","AREASQKM21":54.771,"LOCI_URI21":"http://linked.data.gov.au/dataset/asgsed3/SAL/10076","SHAPE_Leng":0.425905529319,"SHAPE_Area":0.00515006211937,"fill":"#f28e2c"},"geometry":{"type":"Point","coordinates":[151.521085,-30.57222]}},{"type":"Feature","properties":{"SAL_CODE21":"10077","SAL_NAME21":"Ardlethan","STE_CODE21":"1","STE_NAME21":"New South Wales","AUS_CODE21":"AUS","AUS_NAME21":"Australia","AREASQKM21":538.8725,"LOCI_URI21":"http://linked.data.gov.au/dataset/asgsed3/SAL/10077","SHAPE_Leng":1.51775374184,"SHAPE_Area":0.0527961488332,"fill":"#ff9da7"},"geometry":{"type":"Point","coordinates":[146.84248,-34.33457]}},{"type":"Feature","properties":{"SAL_CODE21":"10078","SAL_NAME21":"Argalong","STE_CODE21":"1","STE_NAME21":"New South Wales","AUS_CODE21":"AUS","AUS_NAME21":"Australia","AREASQKM21":132.3034,"LOCI_URI21":"http://linked.data.gov.au/dataset/asgsed3/SAL/10078","SHAPE_Leng":0.58159662513,"SHAPE_Area":0.0131101723295,"fill":"#76b7b2"},"geometry":{"type":"Point","coordinates":[148.43067000000002,-35.29698]}},{"type":"Feature","properties":{"SAL_CODE21":"10079","SAL_NAME21":"Argenton","STE_CODE21":"1","STE_NAME21":"New South Wales","AUS_CODE21":"AUS","AUS_NAME21":"Australia","AREASQKM21":1.5233,"LOCI_URI21":"http://linked.data.gov.au/dataset/asgsed3/SAL/10079","SHAPE_Leng":0.0623844908743,"SHAPE_Area":0.000146885457753,"fill":"#edc949"},"geometry":{"type":"Point","coordinates":[151.6321,-32.93537]}},{"type":"Feature","properties":{"SAL_CODE21":"10080","SAL_NAME21":"Argents Hill","STE_CODE21":"1","STE_NAME21":"New South Wales","AUS_CODE21":"AUS","AUS_NAME21":"Australia","AREASQKM21":76.2545,"LOCI_URI21":"http://linked.data.gov.au/dataset/asgsed3/SAL/10080","SHAPE_Leng":0.858840241758,"SHAPE_Area":0.00717304240081,"fill":"#9c755f"},"geometry":{"type":"Point","coordinates":[152.72827999999998,-30.605505]}},{"type":"Feature","properties":{"SAL_CODE21":"10081","SAL_NAME21":"Argoon","STE_CODE21":"1","STE_NAME21":"New South Wales","AUS_CODE21":"AUS","AUS_NAME21":"Australia","AREASQKM21":247.1246,"LOCI_URI21":"http://linked.data.gov.au/dataset/asgsed3/SAL/10081","SHAPE_Leng":0.862126590123,"SHAPE_Area":0.0243772302087,"fill":"#59a14f"},"geometry":{"type":"Point","coordinates":[145.675595,-34.92369]}},{"type":"Feature","properties":{"SAL_CODE21":"10082","SAL_NAME21":"Ariah Park","STE_CODE21":"1","STE_NAME21":"New South Wales","AUS_CODE21":"AUS","AUS_NAME21":"Australia","AREASQKM21":489.991,"LOCI_URI21":"http://linked.data.gov.au/dataset/asgsed3/SAL/10082","SHAPE_Leng":1.1149984715,"SHAPE_Area":0.0479885732781,"fill":"#59a14f"},"geometry":{"type":"Point","coordinates":[147.2019,-34.305255]}},{"type":"Feature","properties":{"SAL_CODE21":"10083","SAL_NAME21":"Arkell","STE_CODE21":"1","STE_NAME21":"New South Wales","AUS_CODE21":"AUS","AUS_NAME21":"Australia","AREASQKM21":66.8602,"LOCI_URI21":"http://linked.data.gov.au/dataset/asgsed3/SAL/10083","SHAPE_Leng":0.409346761566,"SHAPE_Area":0.00650470890661,"fill":"#59a14f"},"geometry":{"type":"Point","coordinates":[149.38154500000002,-33.73571]}},{"type":"Feature","properties":{"SAL_CODE21":"10084","SAL_NAME21":"Arkstone","STE_CODE21":"1","STE_NAME21":"New South Wales","AUS_CODE21":"AUS","AUS_NAME21":"Australia","AREASQKM21":79.3706,"LOCI_URI21":"http://linked.data.gov.au/dataset/asgsed3/SAL/10084","SHAPE_Leng":0.8081565819,"SHAPE_Area":0.00774897806527,"fill":"#ff9da7"},"geometry":{"type":"Point","coordinates":[149.662235,-34.05244]}},{"type":"Feature","properties":{"SAL_CODE21":"10085","SAL_NAME21":"Armatree","STE_CODE21":"1","STE_NAME21":"New South Wales","AUS_CODE21":"AUS","AUS_NAME21":"Australia","AREASQKM21":484.98,"LOCI_URI21":"http://linked.data.gov.au/dataset/asgsed3/SAL/10085","SHAPE_Leng":1.35478206252,"SHAPE_Area":0.0460155935931,"fill":"#4e79a7"},"geometry":{"type":"Point","coordinates":[148.49813,-31.454415]}},{"type":"Feature","properties":{"SAL_CODE21":"10086","SAL_NAME21":"Armidale","STE_CODE21":"1","STE_NAME21":"New South Wales","AUS_CODE21":"AUS","AUS_NAME21":"Australia","AREASQKM21":274.5996,"LOCI_URI21":"http://linked.data.gov.au/dataset/asgsed3/SAL/10086","SHAPE_Leng":0.811345903203,"SHAPE_Area":0.0258028178277,"fill":"#af7aa1"},"geometry":{"type":"Point","coordinates":[151.667385,-30.50194]}},{"type":"Feature","properties":{"SAL_CODE21":"10087","SAL_NAME21":"Arncliffe","STE_CODE21":"1","STE_NAME21":"New South Wales","AUS_CODE21":"AUS","AUS_NAME21":"Australia","AREASQKM21":2.9429,"LOCI_URI21":"http://linked.data.gov.au/dataset/asgsed3/SAL/10087","SHAPE_Leng":0.102650391077,"SHAPE_Area":0.000287053411331,"fill":"#e15759"},"geometry":{"type":"Point","coordinates":[151.145725,-33.93867]}},{"type":"Feature","properties":{"SAL_CODE21":"10088","SAL_NAME21":"Arndell Park","STE_CODE21":"1","STE_NAME21":"New South Wales","AUS_CODE21":"AUS","AUS_NAME21":"Australia","AREASQKM21":2.0008,"LOCI_URI21":"http://linked.data.gov.au/dataset/asgsed3/SAL/10088","SHAPE_Leng":0.0733660759579,"SHAPE_Area":0.000194774578487,"fill":"#bab0ab"},"geometry":{"type":"Point","coordinates":[150.884475,-33.790305000000004]}},{"type":"Feature","properties":{"SAL_CODE21":"10089","SAL_NAME21":"Arrawarra","STE_CODE21":"1","STE_NAME21":"New South Wales","AUS_CODE21":"AUS","AUS_NAME21":"Australia","AREASQKM21":2.818,"LOCI_URI21":"http://linked.data.gov.au/dataset/asgsed3/SAL/10089","SHAPE_Leng":0.0765132503103,"SHAPE_Area":0.000263603799538,"fill":"#edc949"},"geometry":{"type":"Point","coordinates":[153.191345,-30.051940000000002]}},{"type":"Feature","properties":{"SAL_CODE21":"10090","SAL_NAME21":"Arrawarra Headland","STE_CODE21":"1","STE_NAME21":"New South Wales","AUS_CODE21":"AUS","AUS_NAME21":"Australia","AREASQKM21":2.6804,"LOCI_URI21":"http://linked.data.gov.au/dataset/asgsed3/SAL/10090","SHAPE_Leng":0.0875744150003,"SHAPE_Area":0.000250778239458,"fill":"#af7aa1"},"geometry":{"type":"Point","coordinates":[153.19554,-30.067165]}},{"type":"Feature","properties":{"SAL_CODE21":"10091","SAL_NAME21":"Artarmon","STE_CODE21":"1","STE_NAME21":"New South Wales","AUS_CODE21":"AUS","AUS_NAME21":"Australia","AREASQKM21":2.5348,"LOCI_URI21":"http://linked.data.gov.au/dataset/asgsed3/SAL/10091","SHAPE_Leng":0.0712488727156,"SHAPE_Area":0.00024688811721,"fill":"#ff9da7"},"geometry":{"type":"Point","coordinates":[151.18499,-33.811925]}},{"type":"Feature","properties":{"SAL_CODE21":"10092","SAL_NAME21":"Arthurville","STE_CODE21":"1","STE_NAME21":"New South Wales","AUS_CODE21":"AUS","AUS_NAME21":"Australia","AREASQKM21":72.5398,"LOCI_URI21":"http://linked.data.gov.au/dataset/asgsed3/SAL/10092","SHAPE_Leng":0.504007487146,"SHAPE_Area":0.00696478296744,"fill":"#edc949"},"geometry":{"type":"Point","coordinates":[148.73815000000002,-32.55291]}},{"type":"Feature","properties":{"SAL_CODE21":"10093","SAL_NAME21":"Arumpo","STE_CODE21":"1","STE_NAME21":"New South Wales","AUS_CODE21":"AUS","AUS_NAME21":"Australia","AREASQKM21":5396.4077,"LOCI_URI21":"http://linked.data.gov.au/dataset/asgsed3/SAL/10093","SHAPE_Leng":5.9274325622,"SHAPE_Area":0.524309423369,"fill":"#af7aa1"},"geometry":{"type":"Point","coordinates":[143.02267,-33.59204]}},{"type":"Feature","properties":{"SAL_CODE21":"10094","SAL_NAME21":"Ashbury","STE_CODE21":"1","STE_NAME21":"New South Wales","AUS_CODE21":"AUS","AUS_NAME21":"Australia","AREASQKM21":1.0312,"LOCI_URI21":"http://linked.data.gov.au/dataset/asgsed3/SAL/10094","SHAPE_Leng":0.0558629346045,"SHAPE_Area":0.000100490484012,"fill":"#edc949"},"geometry":{"type":"Point","coordinates":[151.11778,-33.901115000000004]}},{"type":"Feature","properties":{"SAL_CODE21":"10095","SAL_NAME21":"Ashby (NSW)","STE_CODE21":"1","STE_NAME21":"New South Wales","AUS_CODE21":"AUS","AUS_NAME21":"Australia","AREASQKM21":14.03,"LOCI_URI21":"http://linked.data.gov.au/dataset/asgsed3/SAL/10095","SHAPE_Leng":0.180292430112,"SHAPE_Area":0.00130461765811,"fill":"#76b7b2"},"geometry":{"type":"Point","coordinates":[153.184395,-29.440455]}},{"type":"Feature","properties":{"SAL_CODE21":"10096","SAL_NAME21":"Ashby Heights","STE_CODE21":"1","STE_NAME21":"New South Wales","AUS_CODE21":"AUS","AUS_NAME21":"Australia","AREASQKM21":32.3489,"LOCI_URI21":"http://linked.data.gov.au/dataset/asgsed3/SAL/10096","SHAPE_Leng":0.294857236692,"SHAPE_Area":0.00300669813545,"fill":"#f28e2c"},"geometry":{"type":"Point","coordinates":[153.179305,-29.386865]}},{"type":"Feature","properties":{"SAL_CODE21":"10097","SAL_NAME21":"Ashby Island","STE_CODE21":"1","STE_NAME21":"New South Wales","AUS_CODE21":"AUS","AUS_NAME21":"Australia","AREASQKM21":2.4098,"LOCI_URI21":"http://linked.data.gov.au/dataset/asgsed3/SAL/10097","SHAPE_Leng":0.0635792010339,"SHAPE_Area":0.00022404308788,"fill":"#e15759"},"geometry":{"type":"Point","coordinates":[153.20411000000001,-29.423555]}},{"type":"Feature","properties":{"SAL_CODE21":"10098","SAL_NAME21":"Ashcroft","STE_CODE21":"1","STE_NAME21":"New South Wales","AUS_CODE21":"AUS","AUS_NAME21":"Australia","AREASQKM21":1.1539,"LOCI_URI21":"http://linked.data.gov.au/dataset/asgsed3/SAL/10098","SHAPE_Leng":0.0593236669726,"SHAPE_Area":0.000112494070122,"fill":"#9c755f"},"geometry":{"type":"Point","coordinates":[150.90096499999999,-33.91627]}},{"type":"Feature","properties":{"SAL_CODE21":"10099","SAL_NAME21":"Ashfield (NSW)","STE_CODE21":"1","STE_NAME21":"New South Wales","AUS_CODE21":"AUS","AUS_NAME21":"Australia","AREASQKM21":3.4144,"LOCI_URI21":"http://linked.data.gov.au/dataset/asgsed3/SAL/10099","SHAPE_Leng":0.101313621015,"SHAPE_Area":0.000332702772386,"fill":"#af7aa1"},"geometry":{"type":"Point","coordinates":[151.12754,-33.88946]}},{"type":"Feature","properties":{"SAL_CODE21":"10100","SAL_NAME21":"Ashford (NSW)","STE_CODE21":"1","STE_NAME21":"New South Wales","AUS_CODE21":"AUS","AUS_NAME21":"Australia","AREASQKM21":681.0473,"LOCI_URI21":"http://linked.data.gov.au/dataset/asgsed3/SAL/10100","SHAPE_Leng":1.81059925596,"SHAPE_Area":0.0632496524601,"fill":"#4e79a7"},"geometry":{"type":"Point","coordinates":[151.16681,-29.291255]}},{"type":"Feature","properties":{"SAL_CODE21":"10101","SAL_NAME21":"Ashley","STE_CODE21":"1","STE_NAME21":"New South Wales","AUS_CODE21":"AUS","AUS_NAME21":"Australia","AREASQKM21":332.7669,"LOCI_URI21":"http://linked.data.gov.au/dataset/asgsed3/SAL/10101","SHAPE_Leng":1.0506239611,"SHAPE_Area":0.0308860563767,"fill":"#ff9da7"},"geometry":{"type":"Point","coordinates":[149.78764,-29.262050000000002]}},{"type":"Feature","properties":{"SAL_CODE21":"10102","SAL_NAME21":"Ashmont","STE_CODE21":"1","STE_NAME21":"New South Wales","AUS_CODE21":"AUS","AUS_NAME21":"Australia","AREASQKM21":2.4289,"LOCI_URI21":"http://linked.data.gov.au/dataset/asgsed3/SAL/10102","SHAPE_Leng":0.0761273105339,"SHAPE_Area":0.000240179853455,"fill":"#ff9da7"},"geometry":{"type":"Point","coordinates":[147.331475,-35.124579999999995]}},{"type":"Feature","properties":{"SAL_CODE21":"10103","SAL_NAME21":"Ashtonfield","STE_CODE21":"1","STE_NAME21":"New South Wales","AUS_CODE21":"AUS","AUS_NAME21":"Australia","AREASQKM21":6.8336,"LOCI_URI21":"http://linked.data.gov.au/dataset/asgsed3/SAL/10103","SHAPE_Leng":0.112468264788,"SHAPE_Area":0.000657731176821,"fill":"#af7aa1"},"geometry":{"type":"Point","coordinates":[151.60152,-32.77794]}},{"type":"Feature","properties":{"SAL_CODE21":"10104","SAL_NAME21":"Asquith","STE_CODE21":"1","STE_NAME21":"New South Wales","AUS_CODE21":"AUS","AUS_NAME21":"Australia","AREASQKM21":3.5033,"LOCI_URI21":"http://linked.data.gov.au/dataset/asgsed3/SAL/10104","SHAPE_Leng":0.105331790208,"SHAPE_Area":0.000340660055939,"fill":"#76b7b2"},"geometry":{"type":"Point","coordinates":[151.119875,-33.68825]}},{"type":"Feature","properties":{"SAL_CODE21":"10105","SAL_NAME21":"Atholwood","STE_CODE21":"1","STE_NAME21":"New South Wales","AUS_CODE21":"AUS","AUS_NAME21":"Australia","AREASQKM21":454.4564,"LOCI_URI21":"http://linked.data.gov.au/dataset/asgsed3/SAL/10105","SHAPE_Leng":1.21023349178,"SHAPE_Area":0.0421077883412,"fill":"#bab0ab"},"geometry":{"type":"Point","coordinates":[151.04880500000002,-29.059105000000002]}},{"type":"Feature","properties":{"SAL_CODE21":"10106","SAL_NAME21":"Attunga","STE_CODE21":"1","STE_NAME21":"New South Wales","AUS_CODE21":"AUS","AUS_NAME21":"Australia","AREASQKM21":218.7213,"LOCI_URI21":"http://linked.data.gov.au/dataset/asgsed3/SAL/10106","SHAPE_Leng":1.0321893091,"SHAPE_Area":0.0206376837517,"fill":"#9c755f"},"geometry":{"type":"Point","coordinates":[150.837105,-30.899425]}},{"type":"Feature","properties":{"SAL_CODE21":"10107","SAL_NAME21":"Auburn (NSW)","STE_CODE21":"1","STE_NAME21":"New South Wales","AUS_CODE21":"AUS","AUS_NAME21":"Australia","AREASQKM21":8.5637,"LOCI_URI21":"http://linked.data.gov.au/dataset/asgsed3/SAL/10107","SHAPE_Leng":0.153584362885,"SHAPE_Area":0.000834290046363,"fill":"#bab0ab"},"geometry":{"type":"Point","coordinates":[151.028255,-33.85786]}},{"type":"Feature","properties":{"SAL_CODE21":"10108","SAL_NAME21":"Auburn Vale","STE_CODE21":"1","STE_NAME21":"New South Wales","AUS_CODE21":"AUS","AUS_NAME21":"Australia","AREASQKM21":63.6472,"LOCI_URI21":"http://linked.data.gov.au/dataset/asgsed3/SAL/10108","SHAPE_Leng":0.48374977027,"SHAPE_Area":0.00594080901724,"fill":"#ff9da7"},"geometry":{"type":"Point","coordinates":[151.028595,-29.823325]}},{"type":"Feature","properties":{"SAL_CODE21":"10109","SAL_NAME21":"Austinmer","STE_CODE21":"1","STE_NAME21":"New South Wales","AUS_CODE21":"AUS","AUS_NAME21":"Australia","AREASQKM21":3.3572,"LOCI_URI21":"http://linked.data.gov.au/dataset/asgsed3/SAL/10109","SHAPE_Leng":0.105276577104,"SHAPE_Area":0.00032873311329,"fill":"#59a14f"},"geometry":{"type":"Point","coordinates":[150.92604999999998,-34.301955]}},{"type":"Feature","properties":{"SAL_CODE21":"10110","SAL_NAME21":"Austral","STE_CODE21":"1","STE_NAME21":"New South Wales","AUS_CODE21":"AUS","AUS_NAME21":"Australia","AREASQKM21":17.6611,"LOCI_URI21":"http://linked.data.gov.au/dataset/asgsed3/SAL/10110","SHAPE_Leng":0.199111978644,"SHAPE_Area":0.00172189887154,"fill":"#af7aa1"},"geometry":{"type":"Point","coordinates":[150.80885999999998,-33.920545000000004]}},{"type":"Feature","properties":{"SAL_CODE21":"10111","SAL_NAME21":"Austral Eden","STE_CODE21":"1","STE_NAME21":"New South Wales","AUS_CODE21":"AUS","AUS_NAME21":"Australia","AREASQKM21":13.6185,"LOCI_URI21":"http://linked.data.gov.au/dataset/asgsed3/SAL/10111","SHAPE_Leng":0.189400297042,"SHAPE_Area":0.00128649161509,"fill":"#ff9da7"},"geometry":{"type":"Point","coordinates":[152.91201999999998,-31.022055]}},{"type":"Feature","properties":{"SAL_CODE21":"10112","SAL_NAME21":"Avalon Beach","STE_CODE21":"1","STE_NAME21":"New South Wales","AUS_CODE21":"AUS","AUS_NAME21":"Australia","AREASQKM21":5.1524,"LOCI_URI21":"http://linked.data.gov.au/dataset/asgsed3/SAL/10112","SHAPE_Leng":0.159631943459,"SHAPE_Area":0.000500627742223,"fill":"#76b7b2"},"geometry":{"type":"Point","coordinates":[151.32698499999998,-33.628964999999994]}},{"type":"Feature","properties":{"SAL_CODE21":"10113","SAL_NAME21":"Avisford","STE_CODE21":"1","STE_NAME21":"New South Wales","AUS_CODE21":"AUS","AUS_NAME21":"Australia","AREASQKM21":18.3025,"LOCI_URI21":"http://linked.data.gov.au/dataset/asgsed3/SAL/10113","SHAPE_Leng":0.208616608378,"SHAPE_Area":0.00176098008521,"fill":"#76b7b2"},"geometry":{"type":"Point","coordinates":[149.479605,-32.747435]}},{"type":"Feature","properties":{"SAL_CODE21":"10114","SAL_NAME21":"Avoca (NSW)","STE_CODE21":"1","STE_NAME21":"New South Wales","AUS_CODE21":"AUS","AUS_NAME21":"Australia","AREASQKM21":24.6252,"LOCI_URI21":"http://linked.data.gov.au/dataset/asgsed3/SAL/10114","SHAPE_Leng":0.244993573075,"SHAPE_Area":0.00241968963182,"fill":"#edc949"},"geometry":{"type":"Point","coordinates":[150.47341,-34.591325]}},{"type":"Feature","properties":{"SAL_CODE21":"10115","SAL_NAME21":"Avoca Beach","STE_CODE21":"1","STE_NAME21":"New South Wales","AUS_CODE21":"AUS","AUS_NAME21":"Australia","AREASQKM21":4.4418,"LOCI_URI21":"http://linked.data.gov.au/dataset/asgsed3/SAL/10115","SHAPE_Leng":0.139491662474,"SHAPE_Area":0.000430812306836,"fill":"#4e79a7"},"geometry":{"type":"Point","coordinates":[151.42813,-33.467465000000004]}},{"type":"Feature","properties":{"SAL_CODE21":"10116","SAL_NAME21":"Avon (NSW)","STE_CODE21":"1","STE_NAME21":"New South Wales","AUS_CODE21":"AUS","AUS_NAME21":"Australia","AREASQKM21":265.8204,"LOCI_URI21":"http://linked.data.gov.au/dataset/asgsed3/SAL/10116","SHAPE_Leng":0.854660662345,"SHAPE_Area":0.0260694439752,"fill":"#9c755f"},"geometry":{"type":"Point","coordinates":[150.677715,-34.436544999999995]}},{"type":"Feature","properties":{"SAL_CODE21":"10117","SAL_NAME21":"Avondale (NSW)","STE_CODE21":"1","STE_NAME21":"New South Wales","AUS_CODE21":"AUS","AUS_NAME21":"Australia","AREASQKM21":18.3129,"LOCI_URI21":"http://linked.data.gov.au/dataset/asgsed3/SAL/10117","SHAPE_Leng":0.263139257417,"SHAPE_Area":0.00179800328947,"fill":"#76b7b2"},"geometry":{"type":"Point","coordinates":[150.74545,-34.52224]}},{"type":"Feature","properties":{"SAL_CODE21":"10118","SAL_NAME21":"Avonside","STE_CODE21":"1","STE_NAME21":"New South Wales","AUS_CODE21":"AUS","AUS_NAME21":"Australia","AREASQKM21":57.3648,"LOCI_URI21":"http://linked.data.gov.au/dataset/asgsed3/SAL/10118","SHAPE_Leng":0.528148314565,"SHAPE_Area":0.00576263110171,"fill":"#4e79a7"},"geometry":{"type":"Point","coordinates":[148.72010999999998,-36.400885]}},{"type":"Feature","properties":{"SAL_CODE21":"10119","SAL_NAME21":"Awaba","STE_CODE21":"1","STE_NAME21":"New South Wales","AUS_CODE21":"AUS","AUS_NAME21":"Australia","AREASQKM21":23.1193,"LOCI_URI21":"http://linked.data.gov.au/dataset/asgsed3/SAL/10119","SHAPE_Leng":0.266061818792,"SHAPE_Area":0.00223122477949,"fill":"#76b7b2"},"geometry":{"type":"Point","coordinates":[151.541495,-33.023805]}},{"type":"Feature","properties":{"SAL_CODE21":"10120","SAL_NAME21":"Aylmerton","STE_CODE21":"1","STE_NAME21":"New South Wales","AUS_CODE21":"AUS","AUS_NAME21":"Australia","AREASQKM21":2.7956,"LOCI_URI21":"http://linked.data.gov.au/dataset/asgsed3/SAL/10120","SHAPE_Leng":0.10524932213,"SHAPE_Area":0.000274151286926,"fill":"#59a14f"},"geometry":{"type":"Point","coordinates":[150.49773499999998,-34.42416]}},{"type":"Feature","properties":{"SAL_CODE21":"10121","SAL_NAME21":"Baan Baa","STE_CODE21":"1","STE_NAME21":"New South Wales","AUS_CODE21":"AUS","AUS_NAME21":"Australia","AREASQKM21":254.9381,"LOCI_URI21":"http://linked.data.gov.au/dataset/asgsed3/SAL/10121","SHAPE_Leng":0.960694696065,"SHAPE_Area":0.0239721550626,"fill":"#bab0ab"},"geometry":{"type":"Point","coordinates":[149.93833999999998,-30.570135]}},{"type":"Feature","properties":{"SAL_CODE21":"10122","SAL_NAME21":"Babinda (NSW)","STE_CODE21":"1","STE_NAME21":"New South Wales","AUS_CODE21":"AUS","AUS_NAME21":"Australia","AREASQKM21":476.2417,"LOCI_URI21":"http://linked.data.gov.au/dataset/asgsed3/SAL/10122","SHAPE_Leng":1.03445401506,"SHAPE_Area":0.0454153110728,"fill":"#f28e2c"},"geometry":{"type":"Point","coordinates":[146.521595,-31.92246]}},{"type":"Feature","properties":{"SAL_CODE21":"10123","SAL_NAME21":"Babyl Creek","STE_CODE21":"1","STE_NAME21":"New South Wales","AUS_CODE21":"AUS","AUS_NAME21":"Australia","AREASQKM21":25.8859,"LOCI_URI21":"http://linked.data.gov.au/dataset/asgsed3/SAL/10123","SHAPE_Leng":0.279171282608,"SHAPE_Area":0.00239064141057,"fill":"#59a14f"},"geometry":{"type":"Point","coordinates":[152.78699999999998,-28.720015]}},{"type":"Feature","properties":{"SAL_CODE21":"10124","SAL_NAME21":"Back Creek (Bland - NSW)","STE_CODE21":"1","STE_NAME21":"New South Wales","AUS_CODE21":"AUS","AUS_NAME21":"Australia","AREASQKM21":449.795,"LOCI_URI21":"http://linked.data.gov.au/dataset/asgsed3/SAL/10124","SHAPE_Leng":1.34947082933,"SHAPE_Area":0.0438245476784,"fill":"#ff9da7"},"geometry":{"type":"Point","coordinates":[147.4564,-33.84677]}},{"type":"Feature","properties":{"SAL_CODE21":"10125","SAL_NAME21":"Back Creek (Gwydir - NSW)","STE_CODE21":"1","STE_NAME21":"New South Wales","AUS_CODE21":"AUS","AUS_NAME21":"Australia","AREASQKM21":119.9515,"LOCI_URI21":"http://linked.data.gov.au/dataset/asgsed3/SAL/10125","SHAPE_Leng":0.538229686369,"SHAPE_Area":0.0112273450865,"fill":"#af7aa1"},"geometry":{"type":"Point","coordinates":[150.27122500000002,-30.106875000000002]}},{"type":"Feature","properties":{"SAL_CODE21":"10126","SAL_NAME21":"Back Creek (Mid-Coast - NSW)","STE_CODE21":"1","STE_NAME21":"New South Wales","AUS_CODE21":"AUS","AUS_NAME21":"Australia","AREASQKM21":31.5289,"LOCI_URI21":"http://linked.data.gov.au/dataset/asgsed3/SAL/10126","SHAPE_Leng":0.321763846102,"SHAPE_Area":0.00300780499395,"fill":"#e15759"},"geometry":{"type":"Point","coordinates":[152.049385,-31.962285]}},{"type":"Feature","properties":{"SAL_CODE21":"10127","SAL_NAME21":"Back Creek (Queanbeyan-Palerang Regional - NSW)","STE_CODE21":"1","STE_NAME21":"New South Wales","AUS_CODE21":"AUS","AUS_NAME21":"Australia","AREASQKM21":39.2653,"LOCI_URI21":"http://linked.data.gov.au/dataset/asgsed3/SAL/10127","SHAPE_Leng":0.420339344583,"SHAPE_Area":0.00389318035773,"fill":"#ff9da7"},"geometry":{"type":"Point","coordinates":[149.944155,-35.346109999999996]}},{"type":"Feature","properties":{"SAL_CODE21":"10128","SAL_NAME21":"Back Creek (Tenterfield - NSW)","STE_CODE21":"1","STE_NAME21":"New South Wales","AUS_CODE21":"AUS","AUS_NAME21":"Australia","AREASQKM21":200.4098,"LOCI_URI21":"http://linked.data.gov.au/dataset/asgsed3/SAL/10128","SHAPE_Leng":0.980581129422,"SHAPE_Area":0.0185502290362,"fill":"#9c755f"},"geometry":{"type":"Point","coordinates":[151.70539,-28.957050000000002]}},{"type":"Feature","properties":{"SAL_CODE21":"10129","SAL_NAME21":"Back Creek (Tweed - NSW)","STE_CODE21":"1","STE_NAME21":"New South Wales","AUS_CODE21":"AUS","AUS_NAME21":"Australia","AREASQKM21":7.4364,"LOCI_URI21":"http://linked.data.gov.au/dataset/asgsed3/SAL/10129","SHAPE_Leng":0.155625618669,"SHAPE_Area":0.000684776275259,"fill":"#af7aa1"},"geometry":{"type":"Point","coordinates":[153.172855,-28.410330000000002]}},{"type":"Feature","properties":{"SAL_CODE21":"10130","SAL_NAME21":"Back Forest","STE_CODE21":"1","STE_NAME21":"New South Wales","AUS_CODE21":"AUS","AUS_NAME21":"Australia","AREASQKM21":5.979,"LOCI_URI21":"http://linked.data.gov.au/dataset/asgsed3/SAL/10130","SHAPE_Leng":0.154781919595,"SHAPE_Area":0.000589244256184,"fill":"#e15759"},"geometry":{"type":"Point","coordinates":[150.676035,-34.843695]}},{"type":"Feature","properties":{"SAL_CODE21":"10131","SAL_NAME21":"Backmede","STE_CODE21":"1","STE_NAME21":"New South Wales","AUS_CODE21":"AUS","AUS_NAME21":"Australia","AREASQKM21":29.4886,"LOCI_URI21":"http://linked.data.gov.au/dataset/asgsed3/SAL/10131","SHAPE_Leng":0.263273076238,"SHAPE_Area":0.0027242445843,"fill":"#59a14f"},"geometry":{"type":"Point","coordinates":[153.0241,-28.761415]}},{"type":"Feature","properties":{"SAL_CODE21":"10132","SAL_NAME21":"Backwater","STE_CODE21":"1","STE_NAME21":"New South Wales","AUS_CODE21":"AUS","AUS_NAME21":"Australia","AREASQKM21":126.3462,"LOCI_URI21":"http://linked.data.gov.au/dataset/asgsed3/SAL/10132","SHAPE_Leng":0.619684613215,"SHAPE_Area":0.0118182485962,"fill":"#edc949"},"geometry":{"type":"Point","coordinates":[151.922365,-30.05246]}},{"type":"Feature","properties":{"SAL_CODE21":"10133","SAL_NAME21":"Badgerys Creek","STE_CODE21":"1","STE_NAME21":"New South Wales","AUS_CODE21":"AUS","AUS_NAME21":"Australia","AREASQKM21":26.981,"LOCI_URI21":"http://linked.data.gov.au/dataset/asgsed3/SAL/10133","SHAPE_Leng":0.293534429698,"SHAPE_Area":0.00262933692153,"fill":"#76b7b2"},"geometry":{"type":"Point","coordinates":[150.74414000000002,-33.88164999999999]}},{"type":"Feature","properties":{"SAL_CODE21":"10134","SAL_NAME21":"Badja","STE_CODE21":"1","STE_NAME21":"New South Wales","AUS_CODE21":"AUS","AUS_NAME21":"Australia","AREASQKM21":130.2836,"LOCI_URI21":"http://linked.data.gov.au/dataset/asgsed3/SAL/10134","SHAPE_Leng":0.714202346065,"SHAPE_Area":0.0130321493417,"fill":"#ff9da7"},"geometry":{"type":"Point","coordinates":[149.51139,-36.04836]}},{"type":"Feature","properties":{"SAL_CODE21":"10135","SAL_NAME21":"Baerami","STE_CODE21":"1","STE_NAME21":"New South Wales","AUS_CODE21":"AUS","AUS_NAME21":"Australia","AREASQKM21":151.2264,"LOCI_URI21":"http://linked.data.gov.au/dataset/asgsed3/SAL/10135","SHAPE_Leng":0.687838216032,"SHAPE_Area":0.014495321356,"fill":"#59a14f"},"geometry":{"type":"Point","coordinates":[150.45745499999998,-32.404915]}},{"type":"Feature","properties":{"SAL_CODE21":"10136","SAL_NAME21":"Baerami Creek","STE_CODE21":"1","STE_NAME21":"New South Wales","AUS_CODE21":"AUS","AUS_NAME21":"Australia","AREASQKM21":367.2391,"LOCI_URI21":"http://linked.data.gov.au/dataset/asgsed3/SAL/10136","SHAPE_Leng":0.934928497485,"SHAPE_Area":0.0352668054852,"fill":"#af7aa1"},"geometry":{"type":"Point","coordinates":[150.492215,-32.573265]}},{"type":"Feature","properties":{"SAL_CODE21":"10137","SAL_NAME21":"Bagnoo","STE_CODE21":"1","STE_NAME21":"New South Wales","AUS_CODE21":"AUS","AUS_NAME21":"Australia","AREASQKM21":37.7957,"LOCI_URI21":"http://linked.data.gov.au/dataset/asgsed3/SAL/10137","SHAPE_Leng":0.344128658564,"SHAPE_Area":0.00358699506868,"fill":"#76b7b2"},"geometry":{"type":"Point","coordinates":[152.53304500000002,-31.47316]}},{"type":"Feature","properties":{"SAL_CODE21":"10138","SAL_NAME21":"Bago","STE_CODE21":"1","STE_NAME21":"New South Wales","AUS_CODE21":"AUS","AUS_NAME21":"Australia","AREASQKM21":63.0427,"LOCI_URI21":"http://linked.data.gov.au/dataset/asgsed3/SAL/10138","SHAPE_Leng":0.448407690858,"SHAPE_Area":0.00598561568891,"fill":"#f28e2c"},"geometry":{"type":"Point","coordinates":[152.66161499999998,-31.518715]}},{"type":"Feature","properties":{"SAL_CODE21":"10139","SAL_NAME21":"Bagotville","STE_CODE21":"1","STE_NAME21":"New South Wales","AUS_CODE21":"AUS","AUS_NAME21":"Australia","AREASQKM21":9.9221,"LOCI_URI21":"http://linked.data.gov.au/dataset/asgsed3/SAL/10139","SHAPE_Leng":0.185882480834,"SHAPE_Area":0.000918526252207,"fill":"#4e79a7"},"geometry":{"type":"Point","coordinates":[153.40872,-28.977075]}},{"type":"Feature","properties":{"SAL_CODE21":"10140","SAL_NAME21":"Bakers Creek (Mid-Coast - NSW)","STE_CODE21":"1","STE_NAME21":"New South Wales","AUS_CODE21":"AUS","AUS_NAME21":"Australia","AREASQKM21":40.4685,"LOCI_URI21":"http://linked.data.gov.au/dataset/asgsed3/SAL/10140","SHAPE_Leng":0.403923148573,"SHAPE_Area":0.00386110152869,"fill":"#f28e2c"},"geometry":{"type":"Point","coordinates":[152.099615,-31.979615000000003]}},{"type":"Feature","properties":{"SAL_CODE21":"10141","SAL_NAME21":"Bakers Creek (Nambucca Valley - NSW)","STE_CODE21":"1","STE_NAME21":"New South Wales","AUS_CODE21":"AUS","AUS_NAME21":"Australia","AREASQKM21":57.2165,"LOCI_URI21":"http://linked.data.gov.au/dataset/asgsed3/SAL/10141","SHAPE_Leng":0.378777056326,"SHAPE_Area":0.00539403747407,"fill":"#59a14f"},"geometry":{"type":"Point","coordinates":[152.711135,-30.82369]}},{"type":"Feature","properties":{"SAL_CODE21":"10142","SAL_NAME21":"Bakers Creek (Uralla - NSW)","STE_CODE21":"1","STE_NAME21":"New South Wales","AUS_CODE21":"AUS","AUS_NAME21":"Australia","AREASQKM21":161.5919,"LOCI_URI21":"http://linked.data.gov.au/dataset/asgsed3/SAL/10142","SHAPE_Leng":0.813077602782,"SHAPE_Area":0.0151569251995,"fill":"#76b7b2"},"geometry":{"type":"Point","coordinates":[150.99935499999998,-30.32865]}},{"type":"Feature","properties":{"SAL_CODE21":"10143","SAL_NAME21":"Bakers Swamp","STE_CODE21":"1","STE_NAME21":"New South Wales","AUS_CODE21":"AUS","AUS_NAME21":"Australia","AREASQKM21":136.4942,"LOCI_URI21":"http://linked.data.gov.au/dataset/asgsed3/SAL/10143","SHAPE_Leng":0.779592639226,"SHAPE_Area":0.0131362828329,"fill":"#76b7b2"},"geometry":{"type":"Point","coordinates":[148.93463,-32.779815]}},{"type":"Feature","properties":{"SAL_CODE21":"10144","SAL_NAME21":"Balaclava (NSW)","STE_CODE21":"1","STE_NAME21":"New South Wales","AUS_CODE21":"AUS","AUS_NAME21":"Australia","AREASQKM21":2.376,"LOCI_URI21":"http://linked.data.gov.au/dataset/asgsed3/SAL/10144","SHAPE_Leng":0.077493876242,"SHAPE_Area":0.000233061222518,"fill":"#e15759"},"geometry":{"type":"Point","coordinates":[150.482675,-34.439925]}},{"type":"Feature","properties":{"SAL_CODE21":"10145","SAL_NAME21":"Balala","STE_CODE21":"1","STE_NAME21":"New South Wales","AUS_CODE21":"AUS","AUS_NAME21":"Australia","AREASQKM21":357.1643,"LOCI_URI21":"http://linked.data.gov.au/dataset/asgsed3/SAL/10145","SHAPE_Leng":1.16012917124,"SHAPE_Area":0.0336009278347,"fill":"#edc949"},"geometry":{"type":"Point","coordinates":[151.283325,-30.618425000000002]}},{"type":"Feature","properties":{"SAL_CODE21":"10146","SAL_NAME21":"Balcolyn","STE_CODE21":"1","STE_NAME21":"New South Wales","AUS_CODE21":"AUS","AUS_NAME21":"Australia","AREASQKM21":0.7391,"LOCI_URI21":"http://linked.data.gov.au/dataset/asgsed3/SAL/10146","SHAPE_Leng":0.0527773447392,"SHAPE_Area":0.0000713853637928,"fill":"#4e79a7"},"geometry":{"type":"Point","coordinates":[151.5515,-33.094535]}},{"type":"Feature","properties":{"SAL_CODE21":"10147","SAL_NAME21":"Bald Blair","STE_CODE21":"1","STE_NAME21":"New South Wales","AUS_CODE21":"AUS","AUS_NAME21":"Australia","AREASQKM21":101.2316,"LOCI_URI21":"http://linked.data.gov.au/dataset/asgsed3/SAL/10147","SHAPE_Leng":0.533367085879,"SHAPE_Area":0.00948157851629,"fill":"#9c755f"},"geometry":{"type":"Point","coordinates":[151.8158,-30.17238]}},{"type":"Feature","properties":{"SAL_CODE21":"10148","SAL_NAME21":"Bald Hills (NSW)","STE_CODE21":"1","STE_NAME21":"New South Wales","AUS_CODE21":"AUS","AUS_NAME21":"Australia","AREASQKM21":10.7141,"LOCI_URI21":"http://linked.data.gov.au/dataset/asgsed3/SAL/10148","SHAPE_Leng":0.173313156226,"SHAPE_Area":0.00108337189858,"fill":"#76b7b2"},"geometry":{"type":"Point","coordinates":[149.84467999999998,-36.910305]}},{"type":"Feature","properties":{"SAL_CODE21":"10149","SAL_NAME21":"Bald Nob","STE_CODE21":"1","STE_NAME21":"New South Wales","AUS_CODE21":"AUS","AUS_NAME21":"Australia","AREASQKM21":77.4933,"LOCI_URI21":"http://linked.data.gov.au/dataset/asgsed3/SAL/10149","SHAPE_Leng":0.537600211052,"SHAPE_Area":0.00722246331249,"fill":"#f28e2c"},"geometry":{"type":"Point","coordinates":[151.99226,-29.673415]}},{"type":"Feature","properties":{"SAL_CODE21":"10150","SAL_NAME21":"Bald Ridge","STE_CODE21":"1","STE_NAME21":"New South Wales","AUS_CODE21":"AUS","AUS_NAME21":"Australia","AREASQKM21":135.8045,"LOCI_URI21":"http://linked.data.gov.au/dataset/asgsed3/SAL/10150","SHAPE_Leng":0.641897942691,"SHAPE_Area":0.013242174297,"fill":"#edc949"},"geometry":{"type":"Point","coordinates":[149.422765,-33.93828]}},{"type":"Feature","properties":{"SAL_CODE21":"10151","SAL_NAME21":"Baldersleigh","STE_CODE21":"1","STE_NAME21":"New South Wales","AUS_CODE21":"AUS","AUS_NAME21":"Australia","AREASQKM21":164.3569,"LOCI_URI21":"http://linked.data.gov.au/dataset/asgsed3/SAL/10151","SHAPE_Leng":1.02163743263,"SHAPE_Area":0.0154036684838,"fill":"#f28e2c"},"geometry":{"type":"Point","coordinates":[151.42759999999998,-30.242244999999997]}},{"type":"Feature","properties":{"SAL_CODE21":"10152","SAL_NAME21":"Baldry","STE_CODE21":"1","STE_NAME21":"New South Wales","AUS_CODE21":"AUS","AUS_NAME21":"Australia","AREASQKM21":473.5339,"LOCI_URI21":"http://linked.data.gov.au/dataset/asgsed3/SAL/10152","SHAPE_Leng":1.81963706597,"SHAPE_Area":0.0456321024323,"fill":"#af7aa1"},"geometry":{"type":"Point","coordinates":[148.47026,-32.881405]}},{"type":"Feature","properties":{"SAL_CODE21":"10153","SAL_NAME21":"Balfours Peak","STE_CODE21":"1","STE_NAME21":"New South Wales","AUS_CODE21":"AUS","AUS_NAME21":"Australia","AREASQKM21":170.9276,"LOCI_URI21":"http://linked.data.gov.au/dataset/asgsed3/SAL/10153","SHAPE_Leng":0.716638793141,"SHAPE_Area":0.0158984281108,"fill":"#59a14f"},"geometry":{"type":"Point","coordinates":[150.776745,-29.464190000000002]}},{"type":"Feature","properties":{"SAL_CODE21":"10154","SAL_NAME21":"Balgowlah","STE_CODE21":"1","STE_NAME21":"New South Wales","AUS_CODE21":"AUS","AUS_NAME21":"Australia","AREASQKM21":1.959,"LOCI_URI21":"http://linked.data.gov.au/dataset/asgsed3/SAL/10154","SHAPE_Leng":0.0722882168257,"SHAPE_Area":0.00019075090403,"fill":"#bab0ab"},"geometry":{"type":"Point","coordinates":[151.26125000000002,-33.794515000000004]}},{"type":"Feature","properties":{"SAL_CODE21":"10155","SAL_NAME21":"Balgowlah Heights","STE_CODE21":"1","STE_NAME21":"New South Wales","AUS_CODE21":"AUS","AUS_NAME21":"Australia","AREASQKM21":1.6838,"LOCI_URI21":"http://linked.data.gov.au/dataset/asgsed3/SAL/10155","SHAPE_Leng":0.0628027750254,"SHAPE_Area":0.000163927828418,"fill":"#f28e2c"},"geometry":{"type":"Point","coordinates":[151.26556,-33.807689999999994]}},{"type":"Feature","properties":{"SAL_CODE21":"10156","SAL_NAME21":"Balgownie","STE_CODE21":"1","STE_NAME21":"New South Wales","AUS_CODE21":"AUS","AUS_NAME21":"Australia","AREASQKM21":3.7153,"LOCI_URI21":"http://linked.data.gov.au/dataset/asgsed3/SAL/10156","SHAPE_Leng":0.0981643667258,"SHAPE_Area":0.000364215053923,"fill":"#9c755f"},"geometry":{"type":"Point","coordinates":[150.871835,-34.38699]}},{"type":"Feature","properties":{"SAL_CODE21":"10157","SAL_NAME21":"Balickera","STE_CODE21":"1","STE_NAME21":"New South Wales","AUS_CODE21":"AUS","AUS_NAME21":"Australia","AREASQKM21":27.4725,"LOCI_URI21":"http://linked.data.gov.au/dataset/asgsed3/SAL/10157","SHAPE_Leng":0.303325894879,"SHAPE_Area":0.00264068447084,"fill":"#af7aa1"},"geometry":{"type":"Point","coordinates":[151.80724,-32.65332]}},{"type":"Feature","properties":{"SAL_CODE21":"10158","SAL_NAME21":"Balladoran","STE_CODE21":"1","STE_NAME21":"New South Wales","AUS_CODE21":"AUS","AUS_NAME21":"Australia","AREASQKM21":243.1277,"LOCI_URI21":"http://linked.data.gov.au/dataset/asgsed3/SAL/10158","SHAPE_Leng":1.05421827056,"SHAPE_Area":0.0231738526525,"fill":"#9c755f"},"geometry":{"type":"Point","coordinates":[148.617515,-31.881435]}},{"type":"Feature","properties":{"SAL_CODE21":"10159","SAL_NAME21":"Ballalaba","STE_CODE21":"1","STE_NAME21":"New South Wales","AUS_CODE21":"AUS","AUS_NAME21":"Australia","AREASQKM21":43.7739,"LOCI_URI21":"http://linked.data.gov.au/dataset/asgsed3/SAL/10159","SHAPE_Leng":0.36074059758,"SHAPE_Area":0.00435484103585,"fill":"#af7aa1"},"geometry":{"type":"Point","coordinates":[149.641775,-35.61992]}},{"type":"Feature","properties":{"SAL_CODE21":"10160","SAL_NAME21":"Balldale","STE_CODE21":"1","STE_NAME21":"New South Wales","AUS_CODE21":"AUS","AUS_NAME21":"Australia","AREASQKM21":191.2906,"LOCI_URI21":"http://linked.data.gov.au/dataset/asgsed3/SAL/10160","SHAPE_Leng":0.936009406025,"SHAPE_Area":0.0190768459194,"fill":"#76b7b2"},"geometry":{"type":"Point","coordinates":[146.521625,-35.803664999999995]}},{"type":"Feature","properties":{"SAL_CODE21":"10161","SAL_NAME21":"Ballengarra","STE_CODE21":"1","STE_NAME21":"New South Wales","AUS_CODE21":"AUS","AUS_NAME21":"Australia","AREASQKM21":23.3563,"LOCI_URI21":"http://linked.data.gov.au/dataset/asgsed3/SAL/10161","SHAPE_Leng":0.263876281857,"SHAPE_Area":0.00221307437788,"fill":"#9c755f"},"geometry":{"type":"Point","coordinates":[152.711255,-31.312535]}},{"type":"Feature","properties":{"SAL_CODE21":"10162","SAL_NAME21":"Ballimore","STE_CODE21":"1","STE_NAME21":"New South Wales","AUS_CODE21":"AUS","AUS_NAME21":"Australia","AREASQKM21":229.3129,"LOCI_URI21":"http://linked.data.gov.au/dataset/asgsed3/SAL/10162","SHAPE_Leng":0.944594671377,"SHAPE_Area":0.0219271524142,"fill":"#bab0ab"},"geometry":{"type":"Point","coordinates":[148.88620500000002,-32.173485]}},{"type":"Feature","properties":{"SAL_CODE21":"10163","SAL_NAME21":"Ballina","STE_CODE21":"1","STE_NAME21":"New South Wales","AUS_CODE21":"AUS","AUS_NAME21":"Australia","AREASQKM21":20.468,"LOCI_URI21":"http://linked.data.gov.au/dataset/asgsed3/SAL/10163","SHAPE_Leng":0.291554405521,"SHAPE_Area":0.00189233951655,"fill":"#af7aa1"},"geometry":{"type":"Point","coordinates":[153.55794500000002,-28.834795]}},{"type":"Feature","properties":{"SAL_CODE21":"10164","SAL_NAME21":"Ballyroe","STE_CODE21":"1","STE_NAME21":"New South Wales","AUS_CODE21":"AUS","AUS_NAME21":"Australia","AREASQKM21":82.9191,"LOCI_URI21":"http://linked.data.gov.au/dataset/asgsed3/SAL/10164","SHAPE_Leng":0.578790000332,"SHAPE_Area":0.00809615363968,"fill":"#9c755f"},"geometry":{"type":"Point","coordinates":[149.57216499999998,-34.06022]}},{"type":"Feature","properties":{"SAL_CODE21":"10165","SAL_NAME21":"Balmain","STE_CODE21":"1","STE_NAME21":"New South Wales","AUS_CODE21":"AUS","AUS_NAME21":"Australia","AREASQKM21":1.5378,"LOCI_URI21":"http://linked.data.gov.au/dataset/asgsed3/SAL/10165","SHAPE_Leng":0.0859491155952,"SHAPE_Area":0.000149783521246,"fill":"#9c755f"},"geometry":{"type":"Point","coordinates":[151.18066,-33.858104999999995]}},{"type":"Feature","properties":{"SAL_CODE21":"10166","SAL_NAME21":"Balmain East","STE_CODE21":"1","STE_NAME21":"New South Wales","AUS_CODE21":"AUS","AUS_NAME21":"Australia","AREASQKM21":0.343,"LOCI_URI21":"http://linked.data.gov.au/dataset/asgsed3/SAL/10166","SHAPE_Leng":0.0398630168621,"SHAPE_Area":0.0000333978674107,"fill":"#bab0ab"},"geometry":{"type":"Point","coordinates":[151.19357,-33.855445]}},{"type":"Feature","properties":{"SAL_CODE21":"10167","SAL_NAME21":"Balmoral (Lake Macquarie - NSW)","STE_CODE21":"1","STE_NAME21":"New South Wales","AUS_CODE21":"AUS","AUS_NAME21":"Australia","AREASQKM21":0.8572,"LOCI_URI21":"http://linked.data.gov.au/dataset/asgsed3/SAL/10167","SHAPE_Leng":0.0590572830968,"SHAPE_Area":0.0000827466836495,"fill":"#76b7b2"},"geometry":{"type":"Point","coordinates":[151.58033,-33.046245]}},{"type":"Feature","properties":{"SAL_CODE21":"10168","SAL_NAME21":"Balmoral (Wingecarribee - NSW)","STE_CODE21":"1","STE_NAME21":"New South Wales","AUS_CODE21":"AUS","AUS_NAME21":"Australia","AREASQKM21":26.3216,"LOCI_URI21":"http://linked.data.gov.au/dataset/asgsed3/SAL/10168","SHAPE_Leng":0.255021899544,"SHAPE_Area":0.00257762429661,"fill":"#ff9da7"},"geometry":{"type":"Point","coordinates":[150.51649,-34.301829999999995]}},{"type":"Feature","properties":{"SAL_CODE21":"10169","SAL_NAME21":"Balranald","STE_CODE21":"1","STE_NAME21":"New South Wales","AUS_CODE21":"AUS","AUS_NAME21":"Australia","AREASQKM21":5203.5484,"LOCI_URI21":"http://linked.data.gov.au/dataset/asgsed3/SAL/10169","SHAPE_Leng":5.00442574003,"SHAPE_Area":0.509766037145,"fill":"#ff9da7"},"geometry":{"type":"Point","coordinates":[143.389265,-34.329775]}},{"type":"Feature","properties":{"SAL_CODE21":"10170","SAL_NAME21":"Bamarang","STE_CODE21":"1","STE_NAME21":"New South Wales","AUS_CODE21":"AUS","AUS_NAME21":"Australia","AREASQKM21":11.8092,"LOCI_URI21":"http://linked.data.gov.au/dataset/asgsed3/SAL/10170","SHAPE_Leng":0.185549973427,"SHAPE_Area":0.00116470555732,"fill":"#e15759"},"geometry":{"type":"Point","coordinates":[150.52088500000002,-34.903135000000006]}},{"type":"Feature","properties":{"SAL_CODE21":"10171","SAL_NAME21":"Banda Banda","STE_CODE21":"1","STE_NAME21":"New South Wales","AUS_CODE21":"AUS","AUS_NAME21":"Australia","AREASQKM21":70.5119,"LOCI_URI21":"http://linked.data.gov.au/dataset/asgsed3/SAL/10171","SHAPE_Leng":0.379587221637,"SHAPE_Area":0.00667268334999,"fill":"#4e79a7"},"geometry":{"type":"Point","coordinates":[152.45589,-31.201195]}},{"type":"Feature","properties":{"SAL_CODE21":"10172","SAL_NAME21":"Bandon Grove","STE_CODE21":"1","STE_NAME21":"New South Wales","AUS_CODE21":"AUS","AUS_NAME21":"Australia","AREASQKM21":50.4499,"LOCI_URI21":"http://linked.data.gov.au/dataset/asgsed3/SAL/10172","SHAPE_Leng":0.464191019269,"SHAPE_Area":0.00482885077262,"fill":"#edc949"},"geometry":{"type":"Point","coordinates":[151.68893500000001,-32.27579]}},{"type":"Feature","properties":{"SAL_CODE21":"10173","SAL_NAME21":"Bangadang","STE_CODE21":"1","STE_NAME21":"New South Wales","AUS_CODE21":"AUS","AUS_NAME21":"Australia","AREASQKM21":17.9611,"LOCI_URI21":"http://linked.data.gov.au/dataset/asgsed3/SAL/10173","SHAPE_Leng":0.251513201861,"SHAPE_Area":0.00177933850067,"fill":"#e15759"},"geometry":{"type":"Point","coordinates":[147.98816499999998,-35.273375]}},{"type":"Feature","properties":{"SAL_CODE21":"10174","SAL_NAME21":"Bangalee (NSW)","STE_CODE21":"1","STE_NAME21":"New South Wales","AUS_CODE21":"AUS","AUS_NAME21":"Australia","AREASQKM21":6.5613,"LOCI_URI21":"http://linked.data.gov.au/dataset/asgsed3/SAL/10174","SHAPE_Leng":0.146865091043,"SHAPE_Area":0.000646680562559,"fill":"#e15759"},"geometry":{"type":"Point","coordinates":[150.549685,-34.841955]}},{"type":"Feature","properties":{"SAL_CODE21":"10175","SAL_NAME21":"Bangalow","STE_CODE21":"1","STE_NAME21":"New South Wales","AUS_CODE21":"AUS","AUS_NAME21":"Australia","AREASQKM21":24.4046,"LOCI_URI21":"http://linked.data.gov.au/dataset/asgsed3/SAL/10175","SHAPE_Leng":0.324962978531,"SHAPE_Area":0.00225301219322,"fill":"#f28e2c"},"geometry":{"type":"Point","coordinates":[153.52403500000003,-28.680619999999998]}},{"type":"Feature","properties":{"SAL_CODE21":"10176","SAL_NAME21":"Bangheet","STE_CODE21":"1","STE_NAME21":"New South Wales","AUS_CODE21":"AUS","AUS_NAME21":"Australia","AREASQKM21":183.8029,"LOCI_URI21":"http://linked.data.gov.au/dataset/asgsed3/SAL/10176","SHAPE_Leng":0.729899567794,"SHAPE_Area":0.0171571621056,"fill":"#4e79a7"},"geometry":{"type":"Point","coordinates":[150.42304000000001,-29.83601]}},{"type":"Feature","properties":{"SAL_CODE21":"10177","SAL_NAME21":"Bango","STE_CODE21":"1","STE_NAME21":"New South Wales","AUS_CODE21":"AUS","AUS_NAME21":"Australia","AREASQKM21":108.4104,"LOCI_URI21":"http://linked.data.gov.au/dataset/asgsed3/SAL/10177","SHAPE_Leng":0.655872582067,"SHAPE_Area":0.0106734391541,"fill":"#9c755f"},"geometry":{"type":"Point","coordinates":[148.958565,-34.760220000000004]}},{"type":"Feature","properties":{"SAL_CODE21":"10178","SAL_NAME21":"Bangor (NSW)","STE_CODE21":"1","STE_NAME21":"New South Wales","AUS_CODE21":"AUS","AUS_NAME21":"Australia","AREASQKM21":3.9221,"LOCI_URI21":"http://linked.data.gov.au/dataset/asgsed3/SAL/10178","SHAPE_Leng":0.115054479723,"SHAPE_Area":0.000382844687711,"fill":"#76b7b2"},"geometry":{"type":"Point","coordinates":[151.032265,-34.0167]}},{"type":"Feature","properties":{"SAL_CODE21":"10179","SAL_NAME21":"Banksia","STE_CODE21":"1","STE_NAME21":"New South Wales","AUS_CODE21":"AUS","AUS_NAME21":"Australia","AREASQKM21":0.9568,"LOCI_URI21":"http://linked.data.gov.au/dataset/asgsed3/SAL/10179","SHAPE_Leng":0.0614924286106,"SHAPE_Area":0.0000933382440011,"fill":"#9c755f"},"geometry":{"type":"Point","coordinates":[151.145375,-33.9465]}},{"type":"Feature","properties":{"SAL_CODE21":"10180","SAL_NAME21":"Banksmeadow","STE_CODE21":"1","STE_NAME21":"New South Wales","AUS_CODE21":"AUS","AUS_NAME21":"Australia","AREASQKM21":4.1582,"LOCI_URI21":"http://linked.data.gov.au/dataset/asgsed3/SAL/10180","SHAPE_Leng":0.129273655795,"SHAPE_Area":0.000405573829974,"fill":"#59a14f"},"geometry":{"type":"Point","coordinates":[151.2114,-33.95682]}},{"type":"Feature","properties":{"SAL_CODE21":"10181","SAL_NAME21":"Bankstown","STE_CODE21":"1","STE_NAME21":"New South Wales","AUS_CODE21":"AUS","AUS_NAME21":"Australia","AREASQKM21":6.3542,"LOCI_URI21":"http://linked.data.gov.au/dataset/asgsed3/SAL/10181","SHAPE_Leng":0.163821883929,"SHAPE_Area":0.000619531912961,"fill":"#76b7b2"},"geometry":{"type":"Point","coordinates":[151.031255,-33.9199]}},{"type":"Feature","properties":{"SAL_CODE21":"10182","SAL_NAME21":"Bankstown Aerodrome","STE_CODE21":"1","STE_NAME21":"New South Wales","AUS_CODE21":"AUS","AUS_NAME21":"Australia","AREASQKM21":3.7302,"LOCI_URI21":"http://linked.data.gov.au/dataset/asgsed3/SAL/10182","SHAPE_Leng":0.10402408281,"SHAPE_Area":0.000363687656596,"fill":"#f28e2c"},"geometry":{"type":"Point","coordinates":[150.99027999999998,-33.923275000000004]}},{"type":"Feature","properties":{"SAL_CODE21":"10183","SAL_NAME21":"Bannaby","STE_CODE21":"1","STE_NAME21":"New South Wales","AUS_CODE21":"AUS","AUS_NAME21":"Australia","AREASQKM21":242.3257,"LOCI_URI21":"http://linked.data.gov.au/dataset/asgsed3/SAL/10183","SHAPE_Leng":1.00247634856,"SHAPE_Area":0.023760339971,"fill":"#bab0ab"},"geometry":{"type":"Point","coordinates":[149.99454500000002,-34.40828500000001]}},{"type":"Feature","properties":{"SAL_CODE21":"10184","SAL_NAME21":"Bannister (NSW)","STE_CODE21":"1","STE_NAME21":"New South Wales","AUS_CODE21":"AUS","AUS_NAME21":"Australia","AREASQKM21":109.924,"LOCI_URI21":"http://linked.data.gov.au/dataset/asgsed3/SAL/10184","SHAPE_Leng":0.666241271265,"SHAPE_Area":0.0108031888639,"fill":"#76b7b2"},"geometry":{"type":"Point","coordinates":[149.49863,-34.612359999999995]}},{"type":"Feature","properties":{"SAL_CODE21":"10185","SAL_NAME21":"Banoon","STE_CODE21":"1","STE_NAME21":"New South Wales","AUS_CODE21":"AUS","AUS_NAME21":"Australia","AREASQKM21":122.9755,"LOCI_URI21":"http://linked.data.gov.au/dataset/asgsed3/SAL/10185","SHAPE_Leng":0.801813076807,"SHAPE_Area":0.0115581318012,"fill":"#bab0ab"},"geometry":{"type":"Point","coordinates":[150.418365,-30.520539999999997]}},{"type":"Feature","properties":{"SAL_CODE21":"10186","SAL_NAME21":"Banora Point","STE_CODE21":"1","STE_NAME21":"New South Wales","AUS_CODE21":"AUS","AUS_NAME21":"Australia","AREASQKM21":9.2645,"LOCI_URI21":"http://linked.data.gov.au/dataset/asgsed3/SAL/10186","SHAPE_Leng":0.25650973234,"SHAPE_Area":0.0008515666248,"fill":"#ff9da7"},"geometry":{"type":"Point","coordinates":[153.534685,-28.224375000000002]}},{"type":"Feature","properties":{"SAL_CODE21":"10187","SAL_NAME21":"Banyabba","STE_CODE21":"1","STE_NAME21":"New South Wales","AUS_CODE21":"AUS","AUS_NAME21":"Australia","AREASQKM21":206.6207,"LOCI_URI21":"http://linked.data.gov.au/dataset/asgsed3/SAL/10187","SHAPE_Leng":0.878326838078,"SHAPE_Area":0.0192001031659,"fill":"#e15759"},"geometry":{"type":"Point","coordinates":[152.93899,-29.392765]}},{"type":"Feature","properties":{"SAL_CODE21":"10188","SAL_NAME21":"Bar Beach","STE_CODE21":"1","STE_NAME21":"New South Wales","AUS_CODE21":"AUS","AUS_NAME21":"Australia","AREASQKM21":0.5058,"LOCI_URI21":"http://linked.data.gov.au/dataset/asgsed3/SAL/10188","SHAPE_Leng":0.0380395510461,"SHAPE_Area":0.0000487682305299,"fill":"#af7aa1"},"geometry":{"type":"Point","coordinates":[151.768925,-32.939085]}},{"type":"Feature","properties":{"SAL_CODE21":"10189","SAL_NAME21":"Bar Point","STE_CODE21":"1","STE_NAME21":"New South Wales","AUS_CODE21":"AUS","AUS_NAME21":"Australia","AREASQKM21":10.0358,"LOCI_URI21":"http://linked.data.gov.au/dataset/asgsed3/SAL/10189","SHAPE_Leng":0.215269193606,"SHAPE_Area":0.00097365608992,"fill":"#ff9da7"},"geometry":{"type":"Point","coordinates":[151.175955,-33.498165]}},{"type":"Feature","properties":{"SAL_CODE21":"10190","SAL_NAME21":"Bara","STE_CODE21":"1","STE_NAME21":"New South Wales","AUS_CODE21":"AUS","AUS_NAME21":"Australia","AREASQKM21":27.6084,"LOCI_URI21":"http://linked.data.gov.au/dataset/asgsed3/SAL/10190","SHAPE_Leng":0.346801587883,"SHAPE_Area":0.00265124998135,"fill":"#59a14f"},"geometry":{"type":"Point","coordinates":[149.83132,-32.57085]}},{"type":"Feature","properties":{"SAL_CODE21":"10191","SAL_NAME21":"Baradine","STE_CODE21":"1","STE_NAME21":"New South Wales","AUS_CODE21":"AUS","AUS_NAME21":"Australia","AREASQKM21":1199.8265,"LOCI_URI21":"http://linked.data.gov.au/dataset/asgsed3/SAL/10191","SHAPE_Leng":2.06907531039,"SHAPE_Area":0.113232723464,"fill":"#59a14f"},"geometry":{"type":"Point","coordinates":[149.0918,-30.913215]}},{"type":"Feature","properties":{"SAL_CODE21":"10192","SAL_NAME21":"Barangaroo","STE_CODE21":"1","STE_NAME21":"New South Wales","AUS_CODE21":"AUS","AUS_NAME21":"Australia","AREASQKM21":0.2227,"LOCI_URI21":"http://linked.data.gov.au/dataset/asgsed3/SAL/10192","SHAPE_Leng":0.0274172562414,"SHAPE_Area":0.0000216934020388,"fill":"#59a14f"},"geometry":{"type":"Point","coordinates":[151.20159999999998,-33.860535]}},{"type":"Feature","properties":{"SAL_CODE21":"10193","SAL_NAME21":"Barcoongere","STE_CODE21":"1","STE_NAME21":"New South Wales","AUS_CODE21":"AUS","AUS_NAME21":"Australia","AREASQKM21":193.4716,"LOCI_URI21":"http://linked.data.gov.au/dataset/asgsed3/SAL/10193","SHAPE_Leng":0.813233800739,"SHAPE_Area":0.0180708980166,"fill":"#ff9da7"},"geometry":{"type":"Point","coordinates":[153.26081,-29.88929]}},{"type":"Feature","properties":{"SAL_CODE21":"10194","SAL_NAME21":"Barden Ridge","STE_CODE21":"1","STE_NAME21":"New South Wales","AUS_CODE21":"AUS","AUS_NAME21":"Australia","AREASQKM21":5.599,"LOCI_URI21":"http://linked.data.gov.au/dataset/asgsed3/SAL/10194","SHAPE_Leng":0.11466912827,"SHAPE_Area":0.000546582083178,"fill":"#9c755f"},"geometry":{"type":"Point","coordinates":[151.00413500000002,-34.03515]}},{"type":"Feature","properties":{"SAL_CODE21":"10195","SAL_NAME21":"Bardia","STE_CODE21":"1","STE_NAME21":"New South Wales","AUS_CODE21":"AUS","AUS_NAME21":"Australia","AREASQKM21":2.1106,"LOCI_URI21":"http://linked.data.gov.au/dataset/asgsed3/SAL/10195","SHAPE_Leng":0.0679679299018,"SHAPE_Area":0.000205846307873,"fill":"#4e79a7"},"geometry":{"type":"Point","coordinates":[150.862325,-33.977289999999996]}},{"type":"Feature","properties":{"SAL_CODE21":"10196","SAL_NAME21":"Bardwell Park","STE_CODE21":"1","STE_NAME21":"New South Wales","AUS_CODE21":"AUS","AUS_NAME21":"Australia","AREASQKM21":0.9557,"LOCI_URI21":"http://linked.data.gov.au/dataset/asgsed3/SAL/10196","SHAPE_Leng":0.0486226315609,"SHAPE_Area":0.0000931995090124,"fill":"#ff9da7"},"geometry":{"type":"Point","coordinates":[151.12532,-33.935915]}},{"type":"Feature","properties":{"SAL_CODE21":"10197","SAL_NAME21":"Bardwell Valley","STE_CODE21":"1","STE_NAME21":"New South Wales","AUS_CODE21":"AUS","AUS_NAME21":"Australia","AREASQKM21":0.6271,"LOCI_URI21":"http://linked.data.gov.au/dataset/asgsed3/SAL/10197","SHAPE_Leng":0.0509145404611,"SHAPE_Area":0.000061146908858,"fill":"#4e79a7"},"geometry":{"type":"Point","coordinates":[151.13065,-33.937725]}},{"type":"Feature","properties":{"SAL_CODE21":"10198","SAL_NAME21":"Barellan","STE_CODE21":"1","STE_NAME21":"New South Wales","AUS_CODE21":"AUS","AUS_NAME21":"Australia","AREASQKM21":986.5272,"LOCI_URI21":"http://linked.data.gov.au/dataset/asgsed3/SAL/10198","SHAPE_Leng":1.55303139511,"SHAPE_Area":0.0964742110807,"fill":"#59a14f"},"geometry":{"type":"Point","coordinates":[146.60745,-34.196245000000005]}},{"type":"Feature","properties":{"SAL_CODE21":"10199","SAL_NAME21":"Bargo","STE_CODE21":"1","STE_NAME21":"New South Wales","AUS_CODE21":"AUS","AUS_NAME21":"Australia","AREASQKM21":49.0897,"LOCI_URI21":"http://linked.data.gov.au/dataset/asgsed3/SAL/10199","SHAPE_Leng":0.407540039842,"SHAPE_Area":0.00480621614626,"fill":"#f28e2c"},"geometry":{"type":"Point","coordinates":[150.58694000000003,-34.287015]}},{"type":"Feature","properties":{"SAL_CODE21":"10200","SAL_NAME21":"Barham","STE_CODE21":"1","STE_NAME21":"New South Wales","AUS_CODE21":"AUS","AUS_NAME21":"Australia","AREASQKM21":472.8032,"LOCI_URI21":"http://linked.data.gov.au/dataset/asgsed3/SAL/10200","SHAPE_Leng":1.83807403066,"SHAPE_Area":0.0470262353626,"fill":"#76b7b2"},"geometry":{"type":"Point","coordinates":[144.19074,-35.60549]}},{"type":"Feature","properties":{"SAL_CODE21":"10201","SAL_NAME21":"Barigan","STE_CODE21":"1","STE_NAME21":"New South Wales","AUS_CODE21":"AUS","AUS_NAME21":"Australia","AREASQKM21":123.9167,"LOCI_URI21":"http://linked.data.gov.au/dataset/asgsed3/SAL/10201","SHAPE_Leng":0.595900479293,"SHAPE_Area":0.0118927887254,"fill":"#bab0ab"},"geometry":{"type":"Point","coordinates":[149.979965,-32.50721]}},{"type":"Feature","properties":{"SAL_CODE21":"10202","SAL_NAME21":"Barkers Vale","STE_CODE21":"1","STE_NAME21":"New South Wales","AUS_CODE21":"AUS","AUS_NAME21":"Australia","AREASQKM21":26.01,"LOCI_URI21":"http://linked.data.gov.au/dataset/asgsed3/SAL/10202","SHAPE_Leng":0.30685731144,"SHAPE_Area":0.00239786449276,"fill":"#f28e2c"},"geometry":{"type":"Point","coordinates":[153.12304,-28.53273]}},{"type":"Feature","properties":{"SAL_CODE21":"10203","SAL_NAME21":"Barmedman","STE_CODE21":"1","STE_NAME21":"New South Wales","AUS_CODE21":"AUS","AUS_NAME21":"Australia","AREASQKM21":708.1132,"LOCI_URI21":"http://linked.data.gov.au/dataset/asgsed3/SAL/10203","SHAPE_Leng":1.59021824641,"SHAPE_Area":0.0691870951398,"fill":"#9c755f"},"geometry":{"type":"Point","coordinates":[147.42793999999998,-34.122]}},{"type":"Feature","properties":{"SAL_CODE21":"10204","SAL_NAME21":"Barneys Reef","STE_CODE21":"1","STE_NAME21":"New South Wales","AUS_CODE21":"AUS","AUS_NAME21":"Australia","AREASQKM21":15.4938,"LOCI_URI21":"http://linked.data.gov.au/dataset/asgsed3/SAL/10204","SHAPE_Leng":0.188006335569,"SHAPE_Area":0.00148150402656,"fill":"#e15759"},"geometry":{"type":"Point","coordinates":[149.50849,-32.17491]}},{"type":"Feature","properties":{"SAL_CODE21":"10205","SAL_NAME21":"Barnsley","STE_CODE21":"1","STE_NAME21":"New South Wales","AUS_CODE21":"AUS","AUS_NAME21":"Australia","AREASQKM21":3.5268,"LOCI_URI21":"http://linked.data.gov.au/dataset/asgsed3/SAL/10205","SHAPE_Leng":0.0983162248361,"SHAPE_Area":0.000339987090702,"fill":"#bab0ab"},"geometry":{"type":"Point","coordinates":[151.58514,-32.928455]}},{"type":"Feature","properties":{"SAL_CODE21":"10206","SAL_NAME21":"Barooga","STE_CODE21":"1","STE_NAME21":"New South Wales","AUS_CODE21":"AUS","AUS_NAME21":"Australia","AREASQKM21":98.1215,"LOCI_URI21":"http://linked.data.gov.au/dataset/asgsed3/SAL/10206","SHAPE_Leng":0.647296935872,"SHAPE_Area":0.0097956791955,"fill":"#9c755f"},"geometry":{"type":"Point","coordinates":[145.69879,-35.90963]}},{"type":"Feature","properties":{"SAL_CODE21":"10207","SAL_NAME21":"Barraba","STE_CODE21":"1","STE_NAME21":"New South Wales","AUS_CODE21":"AUS","AUS_NAME21":"Australia","AREASQKM21":523.5401,"LOCI_URI21":"http://linked.data.gov.au/dataset/asgsed3/SAL/10207","SHAPE_Leng":1.53657290105,"SHAPE_Area":0.0491243278421,"fill":"#4e79a7"},"geometry":{"type":"Point","coordinates":[150.572905,-30.38626]}},{"type":"Feature","properties":{"SAL_CODE21":"10208","SAL_NAME21":"Barrack Heights","STE_CODE21":"1","STE_NAME21":"New South Wales","AUS_CODE21":"AUS","AUS_NAME21":"Australia","AREASQKM21":2.416,"LOCI_URI21":"http://linked.data.gov.au/dataset/asgsed3/SAL/10208","SHAPE_Leng":0.0777876257618,"SHAPE_Area":0.00023734028015,"fill":"#4e79a7"},"geometry":{"type":"Point","coordinates":[150.85486,-34.563024999999996]}},{"type":"Feature","properties":{"SAL_CODE21":"10209","SAL_NAME21":"Barrack Point","STE_CODE21":"1","STE_NAME21":"New South Wales","AUS_CODE21":"AUS","AUS_NAME21":"Australia","AREASQKM21":0.4332,"LOCI_URI21":"http://linked.data.gov.au/dataset/asgsed3/SAL/10209","SHAPE_Leng":0.0328430211652,"SHAPE_Area":0.0000425584799761,"fill":"#bab0ab"},"geometry":{"type":"Point","coordinates":[150.869315,-34.56364]}},{"type":"Feature","properties":{"SAL_CODE21":"10210","SAL_NAME21":"Barraganyatti","STE_CODE21":"1","STE_NAME21":"New South Wales","AUS_CODE21":"AUS","AUS_NAME21":"Australia","AREASQKM21":50.5998,"LOCI_URI21":"http://linked.data.gov.au/dataset/asgsed3/SAL/10210","SHAPE_Leng":0.407093371431,"SHAPE_Area":0.00477267110983,"fill":"#e15759"},"geometry":{"type":"Point","coordinates":[152.918665,-30.87334]}},{"type":"Feature","properties":{"SAL_CODE21":"10211","SAL_NAME21":"Barragga Bay","STE_CODE21":"1","STE_NAME21":"New South Wales","AUS_CODE21":"AUS","AUS_NAME21":"Australia","AREASQKM21":2.4958,"LOCI_URI21":"http://linked.data.gov.au/dataset/asgsed3/SAL/10211","SHAPE_Leng":0.0836460294013,"SHAPE_Area":0.00025105255752,"fill":"#9c755f"},"geometry":{"type":"Point","coordinates":[150.052035,-36.50365]}},{"type":"Feature","properties":{"SAL_CODE21":"10212","SAL_NAME21":"Barratta (NSW)","STE_CODE21":"1","STE_NAME21":"New South Wales","AUS_CODE21":"AUS","AUS_NAME21":"Australia","AREASQKM21":659.3342,"LOCI_URI21":"http://linked.data.gov.au/dataset/asgsed3/SAL/10212","SHAPE_Leng":1.8175843617,"SHAPE_Area":0.0652515420431,"fill":"#59a14f"},"geometry":{"type":"Point","coordinates":[144.532905,-35.200199999999995]}},{"type":"Feature","properties":{"SAL_CODE21":"10213","SAL_NAME21":"Barren Grounds","STE_CODE21":"1","STE_NAME21":"New South Wales","AUS_CODE21":"AUS","AUS_NAME21":"Australia","AREASQKM21":16.1586,"LOCI_URI21":"http://linked.data.gov.au/dataset/asgsed3/SAL/10213","SHAPE_Leng":0.288493246484,"SHAPE_Area":0.00158962536693,"fill":"#59a14f"},"geometry":{"type":"Point","coordinates":[150.731975,-34.692485000000005]}},{"type":"Feature","properties":{"SAL_CODE21":"10214","SAL_NAME21":"Barrengarry","STE_CODE21":"1","STE_NAME21":"New South Wales","AUS_CODE21":"AUS","AUS_NAME21":"Australia","AREASQKM21":42.3946,"LOCI_URI21":"http://linked.data.gov.au/dataset/asgsed3/SAL/10214","SHAPE_Leng":0.430739401262,"SHAPE_Area":0.00417053684722,"fill":"#edc949"},"geometry":{"type":"Point","coordinates":[150.52419,-34.68638]}},{"type":"Feature","properties":{"SAL_CODE21":"10215","SAL_NAME21":"Barretts Creek","STE_CODE21":"1","STE_NAME21":"New South Wales","AUS_CODE21":"AUS","AUS_NAME21":"Australia","AREASQKM21":87.2067,"LOCI_URI21":"http://linked.data.gov.au/dataset/asgsed3/SAL/10215","SHAPE_Leng":0.491581472287,"SHAPE_Area":0.00810308230523,"fill":"#edc949"},"geometry":{"type":"Point","coordinates":[152.75946499999998,-29.372505]}},{"type":"Feature","properties":{"SAL_CODE21":"10216","SAL_NAME21":"Barringella","STE_CODE21":"1","STE_NAME21":"New South Wales","AUS_CODE21":"AUS","AUS_NAME21":"Australia","AREASQKM21":39.4049,"LOCI_URI21":"http://linked.data.gov.au/dataset/asgsed3/SAL/10216","SHAPE_Leng":0.307825071767,"SHAPE_Area":0.00388670477537,"fill":"#4e79a7"},"geometry":{"type":"Point","coordinates":[150.456925,-34.912549999999996]}},{"type":"Feature","properties":{"SAL_CODE21":"10217","SAL_NAME21":"Barrington (NSW)","STE_CODE21":"1","STE_NAME21":"New South Wales","AUS_CODE21":"AUS","AUS_NAME21":"Australia","AREASQKM21":63.0089,"LOCI_URI21":"http://linked.data.gov.au/dataset/asgsed3/SAL/10217","SHAPE_Leng":0.49313947539,"SHAPE_Area":0.0060131043356,"fill":"#9c755f"},"geometry":{"type":"Point","coordinates":[151.901,-31.997854999999998]}},{"type":"Feature","properties":{"SAL_CODE21":"10218","SAL_NAME21":"Barrington Tops","STE_CODE21":"1","STE_NAME21":"New South Wales","AUS_CODE21":"AUS","AUS_NAME21":"Australia","AREASQKM21":305.9778,"LOCI_URI21":"http://linked.data.gov.au/dataset/asgsed3/SAL/10218","SHAPE_Leng":1.18004387384,"SHAPE_Area":0.0291890102281,"fill":"#edc949"},"geometry":{"type":"Point","coordinates":[151.529795,-31.962135000000004]}},{"type":"Feature","properties":{"SAL_CODE21":"10219","SAL_NAME21":"Barry (Blayney - NSW)","STE_CODE21":"1","STE_NAME21":"New South Wales","AUS_CODE21":"AUS","AUS_NAME21":"Australia","AREASQKM21":37.2701,"LOCI_URI21":"http://linked.data.gov.au/dataset/asgsed3/SAL/10219","SHAPE_Leng":0.33064302759,"SHAPE_Area":0.00362227338544,"fill":"#ff9da7"},"geometry":{"type":"Point","coordinates":[149.27213,-33.648825]}},{"type":"Feature","properties":{"SAL_CODE21":"10220","SAL_NAME21":"Barry (Tamworth Regional - NSW)","STE_CODE21":"1","STE_NAME21":"New South Wales","AUS_CODE21":"AUS","AUS_NAME21":"Australia","AREASQKM21":96.6486,"LOCI_URI21":"http://linked.data.gov.au/dataset/asgsed3/SAL/10220","SHAPE_Leng":0.613963148426,"SHAPE_Area":0.009184840866,"fill":"#e15759"},"geometry":{"type":"Point","coordinates":[151.28493500000002,-31.601860000000002]}},{"type":"Feature","properties":{"SAL_CODE21":"10221","SAL_NAME21":"Barwang","STE_CODE21":"1","STE_NAME21":"New South Wales","AUS_CODE21":"AUS","AUS_NAME21":"Australia","AREASQKM21":250.2029,"LOCI_URI21":"http://linked.data.gov.au/dataset/asgsed3/SAL/10221","SHAPE_Leng":1.09733470541,"SHAPE_Area":0.0245430202759,"fill":"#e15759"},"geometry":{"type":"Point","coordinates":[148.46805,-34.447635000000005]}},{"type":"Feature","properties":{"SAL_CODE21":"10222","SAL_NAME21":"Baryulgil","STE_CODE21":"1","STE_NAME21":"New South Wales","AUS_CODE21":"AUS","AUS_NAME21":"Australia","AREASQKM21":1.2859,"LOCI_URI21":"http://linked.data.gov.au/dataset/asgsed3/SAL/10222","SHAPE_Leng":0.060806741602,"SHAPE_Area":0.000119316232708,"fill":"#ff9da7"},"geometry":{"type":"Point","coordinates":[152.599445,-29.217805]}},{"type":"Feature","properties":{"SAL_CODE21":"10223","SAL_NAME21":"Basin View","STE_CODE21":"1","STE_NAME21":"New South Wales","AUS_CODE21":"AUS","AUS_NAME21":"Australia","AREASQKM21":7.0396,"LOCI_URI21":"http://linked.data.gov.au/dataset/asgsed3/SAL/10223","SHAPE_Leng":0.183185732988,"SHAPE_Area":0.000695871694379,"fill":"#76b7b2"},"geometry":{"type":"Point","coordinates":[150.558365,-35.09273]}},{"type":"Feature","properties":{"SAL_CODE21":"10224","SAL_NAME21":"Bass Hill","STE_CODE21":"1","STE_NAME21":"New South Wales","AUS_CODE21":"AUS","AUS_NAME21":"Australia","AREASQKM21":2.9586,"LOCI_URI21":"http://linked.data.gov.au/dataset/asgsed3/SAL/10224","SHAPE_Leng":0.111874566693,"SHAPE_Area":0.000288329531317,"fill":"#e15759"},"geometry":{"type":"Point","coordinates":[150.99309499999998,-33.90027]}},{"type":"Feature","properties":{"SAL_CODE21":"10225","SAL_NAME21":"Bassendean (NSW)","STE_CODE21":"1","STE_NAME21":"New South Wales","AUS_CODE21":"AUS","AUS_NAME21":"Australia","AREASQKM21":82.1128,"LOCI_URI21":"http://linked.data.gov.au/dataset/asgsed3/SAL/10225","SHAPE_Leng":0.507088810328,"SHAPE_Area":0.0076818235377,"fill":"#9c755f"},"geometry":{"type":"Point","coordinates":[151.18201,-30.06043]}},{"type":"Feature","properties":{"SAL_CODE21":"10226","SAL_NAME21":"Batar Creek","STE_CODE21":"1","STE_NAME21":"New South Wales","AUS_CODE21":"AUS","AUS_NAME21":"Australia","AREASQKM21":25.7777,"LOCI_URI21":"http://linked.data.gov.au/dataset/asgsed3/SAL/10226","SHAPE_Leng":0.267909978279,"SHAPE_Area":0.00245155496529,"fill":"#9c755f"},"geometry":{"type":"Point","coordinates":[152.67762,-31.673614999999998]}},{"type":"Feature","properties":{"SAL_CODE21":"10227","SAL_NAME21":"Bateau Bay","STE_CODE21":"1","STE_NAME21":"New South Wales","AUS_CODE21":"AUS","AUS_NAME21":"Australia","AREASQKM21":6.9381,"LOCI_URI21":"http://linked.data.gov.au/dataset/asgsed3/SAL/10227","SHAPE_Leng":0.144435385438,"SHAPE_Area":0.000672277325124,"fill":"#4e79a7"},"geometry":{"type":"Point","coordinates":[151.47129,-33.384845]}},{"type":"Feature","properties":{"SAL_CODE21":"10228","SAL_NAME21":"Batehaven","STE_CODE21":"1","STE_NAME21":"New South Wales","AUS_CODE21":"AUS","AUS_NAME21":"Australia","AREASQKM21":2.5572,"LOCI_URI21":"http://linked.data.gov.au/dataset/asgsed3/SAL/10228","SHAPE_Leng":0.0974796467851,"SHAPE_Area":0.000254774518904,"fill":"#76b7b2"},"geometry":{"type":"Point","coordinates":[150.2002,-35.73549]}},{"type":"Feature","properties":{"SAL_CODE21":"10229","SAL_NAME21":"Batemans Bay","STE_CODE21":"1","STE_NAME21":"New South Wales","AUS_CODE21":"AUS","AUS_NAME21":"Australia","AREASQKM21":33.2251,"LOCI_URI21":"http://linked.data.gov.au/dataset/asgsed3/SAL/10229","SHAPE_Leng":0.473303971736,"SHAPE_Area":0.00330901754126,"fill":"#f28e2c"},"geometry":{"type":"Point","coordinates":[150.161205,-35.70864]}},{"type":"Feature","properties":{"SAL_CODE21":"10230","SAL_NAME21":"Bathampton","STE_CODE21":"1","STE_NAME21":"New South Wales","AUS_CODE21":"AUS","AUS_NAME21":"Australia","AREASQKM21":22.6942,"LOCI_URI21":"http://linked.data.gov.au/dataset/asgsed3/SAL/10230","SHAPE_Leng":0.242410250744,"SHAPE_Area":0.0022018082184,"fill":"#f28e2c"},"geometry":{"type":"Point","coordinates":[149.413645,-33.49191]}},{"type":"Feature","properties":{"SAL_CODE21":"10231","SAL_NAME21":"Bathurst","STE_CODE21":"1","STE_NAME21":"New South Wales","AUS_CODE21":"AUS","AUS_NAME21":"Australia","AREASQKM21":5.8865,"LOCI_URI21":"http://linked.data.gov.au/dataset/asgsed3/SAL/10231","SHAPE_Leng":0.112990616928,"SHAPE_Area":0.000570641111085,"fill":"#9c755f"},"geometry":{"type":"Point","coordinates":[149.578225,-33.41897]}},{"type":"Feature","properties":{"SAL_CODE21":"10232","SAL_NAME21":"Batlow","STE_CODE21":"1","STE_NAME21":"New South Wales","AUS_CODE21":"AUS","AUS_NAME21":"Australia","AREASQKM21":167.0003,"LOCI_URI21":"http://linked.data.gov.au/dataset/asgsed3/SAL/10232","SHAPE_Leng":0.85366729308,"SHAPE_Area":0.0165990223946,"fill":"#4e79a7"},"geometry":{"type":"Point","coordinates":[148.13702999999998,-35.557145]}},{"type":"Feature","properties":{"SAL_CODE21":"10233","SAL_NAME21":"Baulkham Hills","STE_CODE21":"1","STE_NAME21":"New South Wales","AUS_CODE21":"AUS","AUS_NAME21":"Australia","AREASQKM21":13.6507,"LOCI_URI21":"http://linked.data.gov.au/dataset/asgsed3/SAL/10233","SHAPE_Leng":0.173813779743,"SHAPE_Area":0.00132837988092,"fill":"#76b7b2"},"geometry":{"type":"Point","coordinates":[150.98288,-33.753675]}},{"type":"Feature","properties":{"SAL_CODE21":"10234","SAL_NAME21":"Baw Baw (NSW)","STE_CODE21":"1","STE_NAME21":"New South Wales","AUS_CODE21":"AUS","AUS_NAME21":"Australia","AREASQKM21":55.0846,"LOCI_URI21":"http://linked.data.gov.au/dataset/asgsed3/SAL/10234","SHAPE_Leng":0.414759007803,"SHAPE_Area":0.00542087305445,"fill":"#edc949"},"geometry":{"type":"Point","coordinates":[149.64544,-34.710094999999995]}},{"type":"Feature","properties":{"SAL_CODE21":"10235","SAL_NAME21":"Bawley Point","STE_CODE21":"1","STE_NAME21":"New South Wales","AUS_CODE21":"AUS","AUS_NAME21":"Australia","AREASQKM21":20.4862,"LOCI_URI21":"http://linked.data.gov.au/dataset/asgsed3/SAL/10235","SHAPE_Leng":0.329505266295,"SHAPE_Area":0.00203540716022,"fill":"#edc949"},"geometry":{"type":"Point","coordinates":[150.38528,-35.507904999999994]}},{"type":"Feature","properties":{"SAL_CODE21":"10236","SAL_NAME21":"Baxters Ridge","STE_CODE21":"1","STE_NAME21":"New South Wales","AUS_CODE21":"AUS","AUS_NAME21":"Australia","AREASQKM21":101.0207,"LOCI_URI21":"http://linked.data.gov.au/dataset/asgsed3/SAL/10236","SHAPE_Leng":0.567760479578,"SHAPE_Area":0.00961121124779,"fill":"#bab0ab"},"geometry":{"type":"Point","coordinates":[151.90409,-31.71309]}},{"type":"Feature","properties":{"SAL_CODE21":"10237","SAL_NAME21":"Bayview (NSW)","STE_CODE21":"1","STE_NAME21":"New South Wales","AUS_CODE21":"AUS","AUS_NAME21":"Australia","AREASQKM21":3.7612,"LOCI_URI21":"http://linked.data.gov.au/dataset/asgsed3/SAL/10237","SHAPE_Leng":0.15548393738,"SHAPE_Area":0.000365611805412,"fill":"#ff9da7"},"geometry":{"type":"Point","coordinates":[151.288825,-33.66066]}},{"type":"Feature","properties":{"SAL_CODE21":"10238","SAL_NAME21":"Beacon Hill","STE_CODE21":"1","STE_NAME21":"New South Wales","AUS_CODE21":"AUS","AUS_NAME21":"Australia","AREASQKM21":2.8862,"LOCI_URI21":"http://linked.data.gov.au/dataset/asgsed3/SAL/10238","SHAPE_Leng":0.105041150542,"SHAPE_Area":0.00028082927041,"fill":"#bab0ab"},"geometry":{"type":"Point","coordinates":[151.25889999999998,-33.751305]}},{"type":"Feature","properties":{"SAL_CODE21":"10239","SAL_NAME21":"Beaconsfield (NSW)","STE_CODE21":"1","STE_NAME21":"New South Wales","AUS_CODE21":"AUS","AUS_NAME21":"Australia","AREASQKM21":0.1515,"LOCI_URI21":"http://linked.data.gov.au/dataset/asgsed3/SAL/10239","SHAPE_Leng":0.02066871101,"SHAPE_Area":0.0000147665641839,"fill":"#f28e2c"},"geometry":{"type":"Point","coordinates":[151.20039500000001,-33.911500000000004]}},{"type":"Feature","properties":{"SAL_CODE21":"10240","SAL_NAME21":"Bean Creek","STE_CODE21":"1","STE_NAME21":"New South Wales","AUS_CODE21":"AUS","AUS_NAME21":"Australia","AREASQKM21":73.9716,"LOCI_URI21":"http://linked.data.gov.au/dataset/asgsed3/SAL/10240","SHAPE_Leng":0.487919255494,"SHAPE_Area":0.00682253037579,"fill":"#59a14f"},"geometry":{"type":"Point","coordinates":[152.58108,-28.58087]}},{"type":"Feature","properties":{"SAL_CODE21":"10241","SAL_NAME21":"Bearbong","STE_CODE21":"1","STE_NAME21":"New South Wales","AUS_CODE21":"AUS","AUS_NAME21":"Australia","AREASQKM21":294.1304,"LOCI_URI21":"http://linked.data.gov.au/dataset/asgsed3/SAL/10241","SHAPE_Leng":0.933729434344,"SHAPE_Area":0.0279718647166,"fill":"#76b7b2"},"geometry":{"type":"Point","coordinates":[148.88118,-31.66392]}},{"type":"Feature","properties":{"SAL_CODE21":"10242","SAL_NAME21":"Beaumont (NSW)","STE_CODE21":"1","STE_NAME21":"New South Wales","AUS_CODE21":"AUS","AUS_NAME21":"Australia","AREASQKM21":17.0572,"LOCI_URI21":"http://linked.data.gov.au/dataset/asgsed3/SAL/10242","SHAPE_Leng":0.290214065187,"SHAPE_Area":0.00167982962212,"fill":"#ff9da7"},"geometry":{"type":"Point","coordinates":[150.58217,-34.779185]}},{"type":"Feature","properties":{"SAL_CODE21":"10243","SAL_NAME21":"Beaumont Hills","STE_CODE21":"1","STE_NAME21":"New South Wales","AUS_CODE21":"AUS","AUS_NAME21":"Australia","AREASQKM21":3.1896,"LOCI_URI21":"http://linked.data.gov.au/dataset/asgsed3/SAL/10243","SHAPE_Leng":0.083237451861,"SHAPE_Area":0.000310185407012,"fill":"#9c755f"},"geometry":{"type":"Point","coordinates":[150.94162,-33.697869999999995]}},{"type":"Feature","properties":{"SAL_CODE21":"10244","SAL_NAME21":"Beckom","STE_CODE21":"1","STE_NAME21":"New South Wales","AUS_CODE21":"AUS","AUS_NAME21":"Australia","AREASQKM21":351.32,"LOCI_URI21":"http://linked.data.gov.au/dataset/asgsed3/SAL/10244","SHAPE_Leng":1.14229403659,"SHAPE_Area":0.0344041405684,"fill":"#4e79a7"},"geometry":{"type":"Point","coordinates":[147.006035,-34.28609]}},{"type":"Feature","properties":{"SAL_CODE21":"10245","SAL_NAME21":"Bective","STE_CODE21":"1","STE_NAME21":"New South Wales","AUS_CODE21":"AUS","AUS_NAME21":"Australia","AREASQKM21":133.0455,"LOCI_URI21":"http://linked.data.gov.au/dataset/asgsed3/SAL/10245","SHAPE_Leng":0.646652513027,"SHAPE_Area":0.0125656713884,"fill":"#edc949"},"geometry":{"type":"Point","coordinates":[150.71143,-31.004145]}},{"type":"Feature","properties":{"SAL_CODE21":"10246","SAL_NAME21":"Bectric","STE_CODE21":"1","STE_NAME21":"New South Wales","AUS_CODE21":"AUS","AUS_NAME21":"Australia","AREASQKM21":145.6835,"LOCI_URI21":"http://linked.data.gov.au/dataset/asgsed3/SAL/10246","SHAPE_Leng":0.553991917093,"SHAPE_Area":0.0143001578275,"fill":"#edc949"},"geometry":{"type":"Point","coordinates":[147.27452,-34.503875]}},