{"type":"FeatureCollection","features":[{"type":"Feature","properties":{"SAL_CODE21":"70001","SAL_NAME21":"Acacia Hills (NT)","STE_CODE21":"7","STE_NAME21":"Northern Territory","AUS_CODE21":"AUS","AUS_NAME21":"Australia","AREASQKM21":127.3088,"LOCI_URI21":"http://linked.data.gov.au/dataset/asgsed3/SAL/70001","SHAPE_Leng":0.495205603475,"SHAPE_Area":0.0105971440579,"fill":"#f28e2c"},"geometry":{"type":"Point","coordinates":[131.151115,-12.763304999999999]}},{"type":"Feature","properties":{"SAL_CODE21":"70002","SAL_NAME21":"Adelaide River","STE_CODE21":"7","STE_NAME21":"Northern Territory","AUS_CODE21":"AUS","AUS_NAME21":"Australia","AREASQKM21":146.7377,"LOCI_URI21":"http://linked.data.gov.au/dataset/asgsed3/SAL/70002","SHAPE_Leng":0.538390671909,"SHAPE_Area":0.0122344968989,"fill":"#f28e2c"},"geometry":{"type":"Point","coordinates":[131.167375,-13.177669999999999]}},{"type":"Feature","properties":{"SAL_CODE21":"70003","SAL_NAME21":"Alawa","STE_CODE21":"7","STE_NAME21":"Northern Territory","AUS_CODE21":"AUS","AUS_NAME21":"Australia","AREASQKM21":1.2399,"LOCI_URI21":"http://linked.data.gov.au/dataset/asgsed3/SAL/70003","SHAPE_Leng":0.0482161750289,"SHAPE_Area":0.00010307171726,"fill":"#76b7b2"},"geometry":{"type":"Point","coordinates":[130.873785,-12.3797]}},{"type":"Feature","properties":{"SAL_CODE21":"70004","SAL_NAME21":"Ali Curung","STE_CODE21":"7","STE_NAME21":"Northern Territory","AUS_CODE21":"AUS","AUS_NAME21":"Australia","AREASQKM21":443.1496,"LOCI_URI21":"http://linked.data.gov.au/dataset/asgsed3/SAL/70004","SHAPE_Leng":0.873030052512,"SHAPE_Area":0.038504550789,"fill":"#f28e2c"},"geometry":{"type":"Point","coordinates":[134.321245,-21.024195]}},{"type":"Feature","properties":{"SAL_CODE21":"70005","SAL_NAME21":"Alice Springs","STE_CODE21":"7","STE_NAME21":"Northern Territory","AUS_CODE21":"AUS","AUS_NAME21":"Australia","AREASQKM21":1.3415,"LOCI_URI21":"http://linked.data.gov.au/dataset/asgsed3/SAL/70005","SHAPE_Leng":0.0533856282127,"SHAPE_Area":0.000118760795157,"fill":"#ff9da7"},"geometry":{"type":"Point","coordinates":[133.880355,-23.699675]}},{"type":"Feature","properties":{"SAL_CODE21":"70006","SAL_NAME21":"Alpurrurulam","STE_CODE21":"7","STE_NAME21":"Northern Territory","AUS_CODE21":"AUS","AUS_NAME21":"Australia","AREASQKM21":9.9926,"LOCI_URI21":"http://linked.data.gov.au/dataset/asgsed3/SAL/70006","SHAPE_Leng":0.120787808242,"SHAPE_Area":0.000867976732582,"fill":"#f28e2c"},"geometry":{"type":"Point","coordinates":[137.83627,-20.983955]}},{"type":"Feature","properties":{"SAL_CODE21":"70007","SAL_NAME21":"Alyangula","STE_CODE21":"7","STE_NAME21":"Northern Territory","AUS_CODE21":"AUS","AUS_NAME21":"Australia","AREASQKM21":2.7429,"LOCI_URI21":"http://linked.data.gov.au/dataset/asgsed3/SAL/70007","SHAPE_Leng":0.0847058535238,"SHAPE_Area":0.000229324652969,"fill":"#f28e2c"},"geometry":{"type":"Point","coordinates":[136.420655,-13.850985]}},{"type":"Feature","properties":{"SAL_CODE21":"70008","SAL_NAME21":"Amoonguna","STE_CODE21":"7","STE_NAME21":"Northern Territory","AUS_CODE21":"AUS","AUS_NAME21":"Australia","AREASQKM21":5.5884,"LOCI_URI21":"http://linked.data.gov.au/dataset/asgsed3/SAL/70008","SHAPE_Leng":0.0896570505502,"SHAPE_Area":0.000495005759846,"fill":"#9c755f"},"geometry":{"type":"Point","coordinates":[133.93032,-23.768345]}},{"type":"Feature","properties":{"SAL_CODE21":"70009","SAL_NAME21":"Ampilatwatja","STE_CODE21":"7","STE_NAME21":"Northern Territory","AUS_CODE21":"AUS","AUS_NAME21":"Australia","AREASQKM21":28.2769,"LOCI_URI21":"http://linked.data.gov.au/dataset/asgsed3/SAL/70009","SHAPE_Leng":0.218634025977,"SHAPE_Area":0.00246729639724,"fill":"#9c755f"},"geometry":{"type":"Point","coordinates":[135.24249500000002,-21.664895]}},{"type":"Feature","properties":{"SAL_CODE21":"70010","SAL_NAME21":"Anatye","STE_CODE21":"7","STE_NAME21":"Northern Territory","AUS_CODE21":"AUS","AUS_NAME21":"Australia","AREASQKM21":45033.8831,"LOCI_URI21":"http://linked.data.gov.au/dataset/asgsed3/SAL/70010","SHAPE_Leng":8.91226274807,"SHAPE_Area":3.96643687733,"fill":"#4e79a7"},"geometry":{"type":"Point","coordinates":[136.82936,-23.064014999999998]}},{"type":"Feature","properties":{"SAL_CODE21":"70011","SAL_NAME21":"Angurugu","STE_CODE21":"7","STE_NAME21":"Northern Territory","AUS_CODE21":"AUS","AUS_NAME21":"Australia","AREASQKM21":1.5128,"LOCI_URI21":"http://linked.data.gov.au/dataset/asgsed3/SAL/70011","SHAPE_Leng":0.0488256514525,"SHAPE_Area":0.000126557421896,"fill":"#e15759"},"geometry":{"type":"Point","coordinates":[136.46139,-13.98023]}},{"type":"Feature","properties":{"SAL_CODE21":"70012","SAL_NAME21":"Anindilyakwa","STE_CODE21":"7","STE_NAME21":"Northern Territory","AUS_CODE21":"AUS","AUS_NAME21":"Australia","AREASQKM21":2592.7369,"LOCI_URI21":"http://linked.data.gov.au/dataset/asgsed3/SAL/70012","SHAPE_Leng":8.35142984107,"SHAPE_Area":0.216905657405,"fill":"#bab0ab"},"geometry":{"type":"Point","coordinates":[136.53521,-13.965489999999999]}},{"type":"Feature","properties":{"SAL_CODE21":"70013","SAL_NAME21":"Anmatjere","STE_CODE21":"7","STE_NAME21":"Northern Territory","AUS_CODE21":"AUS","AUS_NAME21":"Australia","AREASQKM21":54462.8736,"LOCI_URI21":"http://linked.data.gov.au/dataset/asgsed3/SAL/70013","SHAPE_Leng":14.4208076579,"SHAPE_Area":4.76482156566,"fill":"#76b7b2"},"geometry":{"type":"Point","coordinates":[133.317775,-21.746335]}},{"type":"Feature","properties":{"SAL_CODE21":"70014","SAL_NAME21":"Anula","STE_CODE21":"7","STE_NAME21":"Northern Territory","AUS_CODE21":"AUS","AUS_NAME21":"Australia","AREASQKM21":1.3178,"LOCI_URI21":"http://linked.data.gov.au/dataset/asgsed3/SAL/70014","SHAPE_Leng":0.0441639978153,"SHAPE_Area":0.000109547821742,"fill":"#bab0ab"},"geometry":{"type":"Point","coordinates":[130.89049999999997,-12.39026]}},{"type":"Feature","properties":{"SAL_CODE21":"70015","SAL_NAME21":"Araluen (NT)","STE_CODE21":"7","STE_NAME21":"Northern Territory","AUS_CODE21":"AUS","AUS_NAME21":"Australia","AREASQKM21":4.1469,"LOCI_URI21":"http://linked.data.gov.au/dataset/asgsed3/SAL/70015","SHAPE_Leng":0.10450367453,"SHAPE_Area":0.00036712343812,"fill":"#76b7b2"},"geometry":{"type":"Point","coordinates":[133.85604,-23.695855]}},{"type":"Feature","properties":{"SAL_CODE21":"70016","SAL_NAME21":"Archer","STE_CODE21":"7","STE_NAME21":"Northern Territory","AUS_CODE21":"AUS","AUS_NAME21":"Australia","AREASQKM21":11.3249,"LOCI_URI21":"http://linked.data.gov.au/dataset/asgsed3/SAL/70016","SHAPE_Leng":0.148584913504,"SHAPE_Area":0.000941862225107,"fill":"#f28e2c"},"geometry":{"type":"Point","coordinates":[130.96227,-12.52193]}},{"type":"Feature","properties":{"SAL_CODE21":"70017","SAL_NAME21":"Areyonga","STE_CODE21":"7","STE_NAME21":"Northern Territory","AUS_CODE21":"AUS","AUS_NAME21":"Australia","AREASQKM21":6.9813,"LOCI_URI21":"http://linked.data.gov.au/dataset/asgsed3/SAL/70017","SHAPE_Leng":0.122528546791,"SHAPE_Area":0.0006198693498,"fill":"#e15759"},"geometry":{"type":"Point","coordinates":[132.271655,-24.087075]}},{"type":"Feature","properties":{"SAL_CODE21":"70018","SAL_NAME21":"Arnold (NT)","STE_CODE21":"7","STE_NAME21":"Northern Territory","AUS_CODE21":"AUS","AUS_NAME21":"Australia","AREASQKM21":18238.4747,"LOCI_URI21":"http://linked.data.gov.au/dataset/asgsed3/SAL/70018","SHAPE_Leng":5.33340168607,"SHAPE_Area":1.54047307313,"fill":"#ff9da7"},"geometry":{"type":"Point","coordinates":[134.383195,-16.139474999999997]}},{"type":"Feature","properties":{"SAL_CODE21":"70019","SAL_NAME21":"Arumbera","STE_CODE21":"7","STE_NAME21":"Northern Territory","AUS_CODE21":"AUS","AUS_NAME21":"Australia","AREASQKM21":70.0879,"LOCI_URI21":"http://linked.data.gov.au/dataset/asgsed3/SAL/70019","SHAPE_Leng":0.38222071611,"SHAPE_Area":0.00620894019638,"fill":"#76b7b2"},"geometry":{"type":"Point","coordinates":[133.81016,-23.778660000000002]}},{"type":"Feature","properties":{"SAL_CODE21":"70020","SAL_NAME21":"Atitjere","STE_CODE21":"7","STE_NAME21":"Northern Territory","AUS_CODE21":"AUS","AUS_NAME21":"Australia","AREASQKM21":7.0143,"LOCI_URI21":"http://linked.data.gov.au/dataset/asgsed3/SAL/70020","SHAPE_Leng":0.152854058095,"SHAPE_Area":0.00061775291654,"fill":"#76b7b2"},"geometry":{"type":"Point","coordinates":[134.926665,-22.998535]}},{"type":"Feature","properties":{"SAL_CODE21":"70021","SAL_NAME21":"Baines","STE_CODE21":"7","STE_NAME21":"Northern Territory","AUS_CODE21":"AUS","AUS_NAME21":"Australia","AREASQKM21":23443.2654,"LOCI_URI21":"http://linked.data.gov.au/dataset/asgsed3/SAL/70021","SHAPE_Leng":8.44688410805,"SHAPE_Area":1.97905309301,"fill":"#ff9da7"},"geometry":{"type":"Point","coordinates":[129.68938,-15.99255]}},{"type":"Feature","properties":{"SAL_CODE21":"70022","SAL_NAME21":"Bakewell","STE_CODE21":"7","STE_NAME21":"Northern Territory","AUS_CODE21":"AUS","AUS_NAME21":"Australia","AREASQKM21":1.3185,"LOCI_URI21":"http://linked.data.gov.au/dataset/asgsed3/SAL/70022","SHAPE_Leng":0.0439961463063,"SHAPE_Area":0.000109666315189,"fill":"#bab0ab"},"geometry":{"type":"Point","coordinates":[130.99281000000002,-12.49662]}},{"type":"Feature","properties":{"SAL_CODE21":"70023","SAL_NAME21":"Barunga","STE_CODE21":"7","STE_NAME21":"Northern Territory","AUS_CODE21":"AUS","AUS_NAME21":"Australia","AREASQKM21":7.4509,"LOCI_URI21":"http://linked.data.gov.au/dataset/asgsed3/SAL/70023","SHAPE_Leng":0.121984918292,"SHAPE_Area":0.000624781925863,"fill":"#ff9da7"},"geometry":{"type":"Point","coordinates":[132.86696999999998,-14.528780000000001]}},{"type":"Feature","properties":{"SAL_CODE21":"70024","SAL_NAME21":"Batchelor","STE_CODE21":"7","STE_NAME21":"Northern Territory","AUS_CODE21":"AUS","AUS_NAME21":"Australia","AREASQKM21":115.696,"LOCI_URI21":"http://linked.data.gov.au/dataset/asgsed3/SAL/70024","SHAPE_Leng":0.565475077981,"SHAPE_Area":0.00964326826519,"fill":"#9c755f"},"geometry":{"type":"Point","coordinates":[131.04708,-13.087045]}},{"type":"Feature","properties":{"SAL_CODE21":"70025","SAL_NAME21":"Bayview (NT)","STE_CODE21":"7","STE_NAME21":"Northern Territory","AUS_CODE21":"AUS","AUS_NAME21":"Australia","AREASQKM21":1.3195,"LOCI_URI21":"http://linked.data.gov.au/dataset/asgsed3/SAL/70025","SHAPE_Leng":0.0447367251296,"SHAPE_Area":0.000109708376512,"fill":"#ff9da7"},"geometry":{"type":"Point","coordinates":[130.858145,-12.437764999999999]}},{"type":"Feature","properties":{"SAL_CODE21":"70026","SAL_NAME21":"Bees Creek","STE_CODE21":"7","STE_NAME21":"Northern Territory","AUS_CODE21":"AUS","AUS_NAME21":"Australia","AREASQKM21":18.5136,"LOCI_URI21":"http://linked.data.gov.au/dataset/asgsed3/SAL/70026","SHAPE_Leng":0.195338794107,"SHAPE_Area":0.00154008026801,"fill":"#f28e2c"},"geometry":{"type":"Point","coordinates":[131.055065,-12.580255000000001]}},{"type":"Feature","properties":{"SAL_CODE21":"70027","SAL_NAME21":"Bellamack","STE_CODE21":"7","STE_NAME21":"Northern Territory","AUS_CODE21":"AUS","AUS_NAME21":"Australia","AREASQKM21":1.2862,"LOCI_URI21":"http://linked.data.gov.au/dataset/asgsed3/SAL/70027","SHAPE_Leng":0.0408318054458,"SHAPE_Area":0.000106953473202,"fill":"#9c755f"},"geometry":{"type":"Point","coordinates":[130.98287,-12.515145]}},{"type":"Feature","properties":{"SAL_CODE21":"70028","SAL_NAME21":"Belyuen","STE_CODE21":"7","STE_NAME21":"Northern Territory","AUS_CODE21":"AUS","AUS_NAME21":"Australia","AREASQKM21":41.4054,"LOCI_URI21":"http://linked.data.gov.au/dataset/asgsed3/SAL/70028","SHAPE_Leng":0.234741427075,"SHAPE_Area":0.00344383789007,"fill":"#f28e2c"},"geometry":{"type":"Point","coordinates":[130.68318499999998,-12.53818]}},{"type":"Feature","properties":{"SAL_CODE21":"70029","SAL_NAME21":"Berrimah","STE_CODE21":"7","STE_NAME21":"Northern Territory","AUS_CODE21":"AUS","AUS_NAME21":"Australia","AREASQKM21":10.4349,"LOCI_URI21":"http://linked.data.gov.au/dataset/asgsed3/SAL/70029","SHAPE_Leng":0.186388546512,"SHAPE_Area":0.000867558481451,"fill":"#f28e2c"},"geometry":{"type":"Point","coordinates":[130.93027,-12.43045]}},{"type":"Feature","properties":{"SAL_CODE21":"70030","SAL_NAME21":"Berry Springs","STE_CODE21":"7","STE_NAME21":"Northern Territory","AUS_CODE21":"AUS","AUS_NAME21":"Australia","AREASQKM21":86.3366,"LOCI_URI21":"http://linked.data.gov.au/dataset/asgsed3/SAL/70030","SHAPE_Leng":0.423040690971,"SHAPE_Area":0.00718582816479,"fill":"#e15759"},"geometry":{"type":"Point","coordinates":[131.0102,-12.723035]}},{"type":"Feature","properties":{"SAL_CODE21":"70031","SAL_NAME21":"Beswick","STE_CODE21":"7","STE_NAME21":"Northern Territory","AUS_CODE21":"AUS","AUS_NAME21":"Australia","AREASQKM21":2.744,"LOCI_URI21":"http://linked.data.gov.au/dataset/asgsed3/SAL/70031","SHAPE_Leng":0.0686390839487,"SHAPE_Area":0.000230122696625,"fill":"#af7aa1"},"geometry":{"type":"Point","coordinates":[133.11587,-14.557185]}},{"type":"Feature","properties":{"SAL_CODE21":"70032","SAL_NAME21":"Beswick Creek","STE_CODE21":"7","STE_NAME21":"Northern Territory","AUS_CODE21":"AUS","AUS_NAME21":"Australia","AREASQKM21":4083.5325,"LOCI_URI21":"http://linked.data.gov.au/dataset/asgsed3/SAL/70032","SHAPE_Leng":2.7932775844,"SHAPE_Area":0.342358959561,"fill":"#edc949"},"geometry":{"type":"Point","coordinates":[133.09616499999998,-14.489090000000001]}},{"type":"Feature","properties":{"SAL_CODE21":"70033","SAL_NAME21":"Binjari","STE_CODE21":"7","STE_NAME21":"Northern Territory","AUS_CODE21":"AUS","AUS_NAME21":"Australia","AREASQKM21":2.8065,"LOCI_URI21":"http://linked.data.gov.au/dataset/asgsed3/SAL/70033","SHAPE_Leng":0.0768005005968,"SHAPE_Area":0.000235356248769,"fill":"#af7aa1"},"geometry":{"type":"Point","coordinates":[132.183895,-14.548775]}},{"type":"Feature","properties":{"SAL_CODE21":"70034","SAL_NAME21":"Birdum","STE_CODE21":"7","STE_NAME21":"Northern Territory","AUS_CODE21":"AUS","AUS_NAME21":"Australia","AREASQKM21":16735.6909,"LOCI_URI21":"http://linked.data.gov.au/dataset/asgsed3/SAL/70034","SHAPE_Leng":6.71460151543,"SHAPE_Area":1.41495328676,"fill":"#9c755f"},"geometry":{"type":"Point","coordinates":[133.201,-16.232]}},{"type":"Feature","properties":{"SAL_CODE21":"70035","SAL_NAME21":"Black Jungle","STE_CODE21":"7","STE_NAME21":"Northern Territory","AUS_CODE21":"AUS","AUS_NAME21":"Australia","AREASQKM21":36.3094,"LOCI_URI21":"http://linked.data.gov.au/dataset/asgsed3/SAL/70035","SHAPE_Leng":0.287383633928,"SHAPE_Area":0.00301983902266,"fill":"#af7aa1"},"geometry":{"type":"Point","coordinates":[131.21049,-12.521249999999998]}},{"type":"Feature","properties":{"SAL_CODE21":"70036","SAL_NAME21":"Blackmore","STE_CODE21":"7","STE_NAME21":"Northern Territory","AUS_CODE21":"AUS","AUS_NAME21":"Australia","AREASQKM21":84.7168,"LOCI_URI21":"http://linked.data.gov.au/dataset/asgsed3/SAL/70036","SHAPE_Leng":0.525969336284,"SHAPE_Area":0.0070495617714,"fill":"#9c755f"},"geometry":{"type":"Point","coordinates":[130.925925,-12.673635]}},{"type":"Feature","properties":{"SAL_CODE21":"70037","SAL_NAME21":"Borroloola","STE_CODE21":"7","STE_NAME21":"Northern Territory","AUS_CODE21":"AUS","AUS_NAME21":"Australia","AREASQKM21":12.5634,"LOCI_URI21":"http://linked.data.gov.au/dataset/asgsed3/SAL/70037","SHAPE_Leng":0.153027534872,"SHAPE_Area":0.00106107091416,"fill":"#59a14f"},"geometry":{"type":"Point","coordinates":[136.30863,-16.069725]}},{"type":"Feature","properties":{"SAL_CODE21":"70038","SAL_NAME21":"Bradshaw","STE_CODE21":"7","STE_NAME21":"Northern Territory","AUS_CODE21":"AUS","AUS_NAME21":"Australia","AREASQKM21":14163.7465,"LOCI_URI21":"http://linked.data.gov.au/dataset/asgsed3/SAL/70038","SHAPE_Leng":6.84946942665,"SHAPE_Area":1.19082294248,"fill":"#bab0ab"},"geometry":{"type":"Point","coordinates":[130.42571500000003,-15.1462]}},{"type":"Feature","properties":{"SAL_CODE21":"70039","SAL_NAME21":"Braitling","STE_CODE21":"7","STE_NAME21":"Northern Territory","AUS_CODE21":"AUS","AUS_NAME21":"Australia","AREASQKM21":4.8751,"LOCI_URI21":"http://linked.data.gov.au/dataset/asgsed3/SAL/70039","SHAPE_Leng":0.0938665454015,"SHAPE_Area":0.000431532267162,"fill":"#e15759"},"geometry":{"type":"Point","coordinates":[133.86356,-23.67483]}},{"type":"Feature","properties":{"SAL_CODE21":"70040","SAL_NAME21":"Brinkin","STE_CODE21":"7","STE_NAME21":"Northern Territory","AUS_CODE21":"AUS","AUS_NAME21":"Australia","AREASQKM21":1.4248,"LOCI_URI21":"http://linked.data.gov.au/dataset/asgsed3/SAL/70040","SHAPE_Leng":0.0526581357038,"SHAPE_Area":0.000118416648107,"fill":"#edc949"},"geometry":{"type":"Point","coordinates":[130.86768,-12.3703]}},{"type":"Feature","properties":{"SAL_CODE21":"70041","SAL_NAME21":"Buchanan (NT)","STE_CODE21":"7","STE_NAME21":"Northern Territory","AUS_CODE21":"AUS","AUS_NAME21":"Australia","AREASQKM21":24253.3708,"LOCI_URI21":"http://linked.data.gov.au/dataset/asgsed3/SAL/70041","SHAPE_Leng":6.97204444573,"SHAPE_Area":2.06684963987,"fill":"#e15759"},"geometry":{"type":"Point","coordinates":[129.71547,-17.705385]}},{"type":"Feature","properties":{"SAL_CODE21":"70042","SAL_NAME21":"Buffalo Creek","STE_CODE21":"7","STE_NAME21":"Northern Territory","AUS_CODE21":"AUS","AUS_NAME21":"Australia","AREASQKM21":10.1682,"LOCI_URI21":"http://linked.data.gov.au/dataset/asgsed3/SAL/70042","SHAPE_Leng":0.135935902149,"SHAPE_Area":0.000845100920465,"fill":"#9c755f"},"geometry":{"type":"Point","coordinates":[130.918895,-12.35021]}},{"type":"Feature","properties":{"SAL_CODE21":"70043","SAL_NAME21":"Bulman Weemol","STE_CODE21":"7","STE_NAME21":"Northern Territory","AUS_CODE21":"AUS","AUS_NAME21":"Australia","AREASQKM21":13.8936,"LOCI_URI21":"http://linked.data.gov.au/dataset/asgsed3/SAL/70043","SHAPE_Leng":0.230170546619,"SHAPE_Area":0.00116073953324,"fill":"#4e79a7"},"geometry":{"type":"Point","coordinates":[134.31162,-13.660609999999998]}},{"type":"Feature","properties":{"SAL_CODE21":"70044","SAL_NAME21":"Burrundie","STE_CODE21":"7","STE_NAME21":"Northern Territory","AUS_CODE21":"AUS","AUS_NAME21":"Australia","AREASQKM21":3280.3481,"LOCI_URI21":"http://linked.data.gov.au/dataset/asgsed3/SAL/70044","SHAPE_Leng":3.04948381977,"SHAPE_Area":0.273871884924,"fill":"#9c755f"},"geometry":{"type":"Point","coordinates":[131.86103500000002,-13.49211]}},{"type":"Feature","properties":{"SAL_CODE21":"70045","SAL_NAME21":"Burt Plain","STE_CODE21":"7","STE_NAME21":"Northern Territory","AUS_CODE21":"AUS","AUS_NAME21":"Australia","AREASQKM21":9777.1413,"LOCI_URI21":"http://linked.data.gov.au/dataset/asgsed3/SAL/70045","SHAPE_Leng":4.41916009748,"SHAPE_Area":0.863473246112,"fill":"#ff9da7"},"geometry":{"type":"Point","coordinates":[133.473495,-23.389225000000003]}},{"type":"Feature","properties":{"SAL_CODE21":"70046","SAL_NAME21":"Bynoe","STE_CODE21":"7","STE_NAME21":"Northern Territory","AUS_CODE21":"AUS","AUS_NAME21":"Australia","AREASQKM21":378.4439,"LOCI_URI21":"http://linked.data.gov.au/dataset/asgsed3/SAL/70046","SHAPE_Leng":1.40613296546,"SHAPE_Area":0.0315071327927,"fill":"#ff9da7"},"geometry":{"type":"Point","coordinates":[130.62599999999998,-12.793885]}},{"type":"Feature","properties":{"SAL_CODE21":"70047","SAL_NAME21":"Bynoe Harbour","STE_CODE21":"7","STE_NAME21":"Northern Territory","AUS_CODE21":"AUS","AUS_NAME21":"Australia","AREASQKM21":51.2659,"LOCI_URI21":"http://linked.data.gov.au/dataset/asgsed3/SAL/70047","SHAPE_Leng":0.918553681755,"SHAPE_Area":0.00426527035849,"fill":"#bab0ab"},"geometry":{"type":"Point","coordinates":[130.49318499999998,-12.61145]}},{"type":"Feature","properties":{"SAL_CODE21":"70048","SAL_NAME21":"Calvert (NT)","STE_CODE21":"7","STE_NAME21":"Northern Territory","AUS_CODE21":"AUS","AUS_NAME21":"Australia","AREASQKM21":23535.1985,"LOCI_URI21":"http://linked.data.gov.au/dataset/asgsed3/SAL/70048","SHAPE_Leng":7.25646367004,"SHAPE_Area":1.99627520705,"fill":"#ff9da7"},"geometry":{"type":"Point","coordinates":[136.93811499999998,-16.822650000000003]}},{"type":"Feature","properties":{"SAL_CODE21":"70049","SAL_NAME21":"Camp Creek (NT)","STE_CODE21":"7","STE_NAME21":"Northern Territory","AUS_CODE21":"AUS","AUS_NAME21":"Australia","AREASQKM21":97.5728,"LOCI_URI21":"http://linked.data.gov.au/dataset/asgsed3/SAL/70049","SHAPE_Leng":0.540066604796,"SHAPE_Area":0.00813549586724,"fill":"#59a14f"},"geometry":{"type":"Point","coordinates":[130.9347,-13.185839999999999]}},{"type":"Feature","properties":{"SAL_CODE21":"70050","SAL_NAME21":"Canteen Creek","STE_CODE21":"7","STE_NAME21":"Northern Territory","AUS_CODE21":"AUS","AUS_NAME21":"Australia","AREASQKM21":1.1999,"LOCI_URI21":"http://linked.data.gov.au/dataset/asgsed3/SAL/70050","SHAPE_Leng":0.0543745364321,"SHAPE_Area":0.000103997087851,"fill":"#e15759"},"geometry":{"type":"Point","coordinates":[135.586865,-20.639025]}},{"type":"Feature","properties":{"SAL_CODE21":"70051","SAL_NAME21":"Casuarina (NT)","STE_CODE21":"7","STE_NAME21":"Northern Territory","AUS_CODE21":"AUS","AUS_NAME21":"Australia","AREASQKM21":0.4187,"LOCI_URI21":"http://linked.data.gov.au/dataset/asgsed3/SAL/70051","SHAPE_Leng":0.0298113032178,"SHAPE_Area":0.0000348004877593,"fill":"#af7aa1"},"geometry":{"type":"Point","coordinates":[130.881395,-12.373764999999999]}},{"type":"Feature","properties":{"SAL_CODE21":"70052","SAL_NAME21":"Channel Island","STE_CODE21":"7","STE_NAME21":"Northern Territory","AUS_CODE21":"AUS","AUS_NAME21":"Australia","AREASQKM21":1.3671,"LOCI_URI21":"http://linked.data.gov.au/dataset/asgsed3/SAL/70052","SHAPE_Leng":0.0541641795207,"SHAPE_Area":0.000113710061696,"fill":"#9c755f"},"geometry":{"type":"Point","coordinates":[130.86691000000002,-12.553605000000001]}},{"type":"Feature","properties":{"SAL_CODE21":"70053","SAL_NAME21":"Charles Darwin","STE_CODE21":"7","STE_NAME21":"Northern Territory","AUS_CODE21":"AUS","AUS_NAME21":"Australia","AREASQKM21":9.7533,"LOCI_URI21":"http://linked.data.gov.au/dataset/asgsed3/SAL/70053","SHAPE_Leng":0.20566083196,"SHAPE_Area":0.000810944297455,"fill":"#af7aa1"},"geometry":{"type":"Point","coordinates":[130.87637999999998,-12.449035]}},{"type":"Feature","properties":{"SAL_CODE21":"70054","SAL_NAME21":"Charlotte","STE_CODE21":"7","STE_NAME21":"Northern Territory","AUS_CODE21":"AUS","AUS_NAME21":"Australia","AREASQKM21":462.1355,"LOCI_URI21":"http://linked.data.gov.au/dataset/asgsed3/SAL/70054","SHAPE_Leng":0.942893426667,"SHAPE_Area":0.0384818904389,"fill":"#59a14f"},"geometry":{"type":"Point","coordinates":[130.79393,-12.845970000000001]}},{"type":"Feature","properties":{"SAL_CODE21":"70055","SAL_NAME21":"Chilla Well","STE_CODE21":"7","STE_NAME21":"Northern Territory","AUS_CODE21":"AUS","AUS_NAME21":"Australia","AREASQKM21":22110.6202,"LOCI_URI21":"http://linked.data.gov.au/dataset/asgsed3/SAL/70055","SHAPE_Leng":9.88191818826,"SHAPE_Area":1.93308250662,"fill":"#59a14f"},"geometry":{"type":"Point","coordinates":[131.42725000000002,-21.837265000000002]}},{"type":"Feature","properties":{"SAL_CODE21":"70056","SAL_NAME21":"Ciccone","STE_CODE21":"7","STE_NAME21":"Northern Territory","AUS_CODE21":"AUS","AUS_NAME21":"Australia","AREASQKM21":2.0672,"LOCI_URI21":"http://linked.data.gov.au/dataset/asgsed3/SAL/70056","SHAPE_Leng":0.0832478530445,"SHAPE_Area":0.00018299052265,"fill":"#f28e2c"},"geometry":{"type":"Point","coordinates":[133.86677500000002,-23.69229]}},{"type":"Feature","properties":{"SAL_CODE21":"70057","SAL_NAME21":"Claravale","STE_CODE21":"7","STE_NAME21":"Northern Territory","AUS_CODE21":"AUS","AUS_NAME21":"Australia","AREASQKM21":2696.0167,"LOCI_URI21":"http://linked.data.gov.au/dataset/asgsed3/SAL/70057","SHAPE_Leng":2.59471105459,"SHAPE_Area":0.225946402858,"fill":"#edc949"},"geometry":{"type":"Point","coordinates":[131.572675,-14.368075000000001]}},{"type":"Feature","properties":{"SAL_CODE21":"70058","SAL_NAME21":"Cobourg","STE_CODE21":"7","STE_NAME21":"Northern Territory","AUS_CODE21":"AUS","AUS_NAME21":"Australia","AREASQKM21":2052.1877,"LOCI_URI21":"http://linked.data.gov.au/dataset/asgsed3/SAL/70058","SHAPE_Leng":6.22760535606,"SHAPE_Area":0.169958823175,"fill":"#f28e2c"},"geometry":{"type":"Point","coordinates":[132.20700499999998,-11.36488]}},{"type":"Feature","properties":{"SAL_CODE21":"70059","SAL_NAME21":"Coconut Grove","STE_CODE21":"7","STE_NAME21":"Northern Territory","AUS_CODE21":"AUS","AUS_NAME21":"Australia","AREASQKM21":1.4242,"LOCI_URI21":"http://linked.data.gov.au/dataset/asgsed3/SAL/70059","SHAPE_Leng":0.0484762714365,"SHAPE_Area":0.00011839373313,"fill":"#bab0ab"},"geometry":{"type":"Point","coordinates":[130.85098,-12.39527]}},{"type":"Feature","properties":{"SAL_CODE21":"70060","SAL_NAME21":"Collett Creek","STE_CODE21":"7","STE_NAME21":"Northern Territory","AUS_CODE21":"AUS","AUS_NAME21":"Australia","AREASQKM21":71.2438,"LOCI_URI21":"http://linked.data.gov.au/dataset/asgsed3/SAL/70060","SHAPE_Leng":0.456752452211,"SHAPE_Area":0.00593403908356,"fill":"#ff9da7"},"geometry":{"type":"Point","coordinates":[130.926675,-12.91573]}},{"type":"Feature","properties":{"SAL_CODE21":"70061","SAL_NAME21":"Connellan","STE_CODE21":"7","STE_NAME21":"Northern Territory","AUS_CODE21":"AUS","AUS_NAME21":"Australia","AREASQKM21":39.1808,"LOCI_URI21":"http://linked.data.gov.au/dataset/asgsed3/SAL/70061","SHAPE_Leng":0.269227878222,"SHAPE_Area":0.0034714099797,"fill":"#59a14f"},"geometry":{"type":"Point","coordinates":[133.90618,-23.79475]}},{"type":"Feature","properties":{"SAL_CODE21":"70062","SAL_NAME21":"Coolalinga","STE_CODE21":"7","STE_NAME21":"Northern Territory","AUS_CODE21":"AUS","AUS_NAME21":"Australia","AREASQKM21":1.1346,"LOCI_URI21":"http://linked.data.gov.au/dataset/asgsed3/SAL/70062","SHAPE_Leng":0.0451131856581,"SHAPE_Area":0.0000943610377187,"fill":"#4e79a7"},"geometry":{"type":"Point","coordinates":[131.041805,-12.51828]}},{"type":"Feature","properties":{"SAL_CODE21":"70063","SAL_NAME21":"Coomalie Creek","STE_CODE21":"7","STE_NAME21":"Northern Territory","AUS_CODE21":"AUS","AUS_NAME21":"Australia","AREASQKM21":177.7225,"LOCI_URI21":"http://linked.data.gov.au/dataset/asgsed3/SAL/70063","SHAPE_Leng":0.642822825306,"SHAPE_Area":0.0148087211785,"fill":"#4e79a7"},"geometry":{"type":"Point","coordinates":[131.1783,-13.001290000000001]}},{"type":"Feature","properties":{"SAL_CODE21":"70064","SAL_NAME21":"Coonawarra (NT)","STE_CODE21":"7","STE_NAME21":"Northern Territory","AUS_CODE21":"AUS","AUS_NAME21":"Australia","AREASQKM21":1.6022,"LOCI_URI21":"http://linked.data.gov.au/dataset/asgsed3/SAL/70064","SHAPE_Leng":0.0462663041004,"SHAPE_Area":0.000133210703756,"fill":"#59a14f"},"geometry":{"type":"Point","coordinates":[130.91080499999998,-12.433845]}},{"type":"Feature","properties":{"SAL_CODE21":"70065","SAL_NAME21":"Cossack (NT)","STE_CODE21":"7","STE_NAME21":"Northern Territory","AUS_CODE21":"AUS","AUS_NAME21":"Australia","AREASQKM21":256.9534,"LOCI_URI21":"http://linked.data.gov.au/dataset/asgsed3/SAL/70065","SHAPE_Leng":0.718415817048,"SHAPE_Area":0.0215395309972,"fill":"#4e79a7"},"geometry":{"type":"Point","coordinates":[132.17903,-14.446829999999999]}},{"type":"Feature","properties":{"SAL_CODE21":"70066","SAL_NAME21":"Costello","STE_CODE21":"7","STE_NAME21":"Northern Territory","AUS_CODE21":"AUS","AUS_NAME21":"Australia","AREASQKM21":39158.4011,"LOCI_URI21":"http://linked.data.gov.au/dataset/asgsed3/SAL/70066","SHAPE_Leng":9.90784270973,"SHAPE_Area":3.4018510611,"fill":"#76b7b2"},"geometry":{"type":"Point","coordinates":[136.78125,-20.91994]}},{"type":"Feature","properties":{"SAL_CODE21":"70067","SAL_NAME21":"Cox Peninsula","STE_CODE21":"7","STE_NAME21":"Northern Territory","AUS_CODE21":"AUS","AUS_NAME21":"Australia","AREASQKM21":778.8882,"LOCI_URI21":"http://linked.data.gov.au/dataset/asgsed3/SAL/70067","SHAPE_Leng":2.97277265159,"SHAPE_Area":0.0647929536869,"fill":"#bab0ab"},"geometry":{"type":"Point","coordinates":[130.71757,-12.55086]}},{"type":"Feature","properties":{"SAL_CODE21":"70068","SAL_NAME21":"Creswell","STE_CODE21":"7","STE_NAME21":"Northern Territory","AUS_CODE21":"AUS","AUS_NAME21":"Australia","AREASQKM21":28237.6913,"LOCI_URI21":"http://linked.data.gov.au/dataset/asgsed3/SAL/70068","SHAPE_Leng":9.19916172342,"SHAPE_Area":2.40663919295,"fill":"#9c755f"},"geometry":{"type":"Point","coordinates":[135.81715,-17.610214999999997]}},{"type":"Feature","properties":{"SAL_CODE21":"70069","SAL_NAME21":"Daguragu","STE_CODE21":"7","STE_NAME21":"Northern Territory","AUS_CODE21":"AUS","AUS_NAME21":"Australia","AREASQKM21":44.1812,"LOCI_URI21":"http://linked.data.gov.au/dataset/asgsed3/SAL/70069","SHAPE_Leng":0.253044615145,"SHAPE_Area":0.00375732497898,"fill":"#af7aa1"},"geometry":{"type":"Point","coordinates":[130.80504,-17.419955]}},{"type":"Feature","properties":{"SAL_CODE21":"70070","SAL_NAME21":"Daly","STE_CODE21":"7","STE_NAME21":"Northern Territory","AUS_CODE21":"AUS","AUS_NAME21":"Australia","AREASQKM21":46.2349,"LOCI_URI21":"http://linked.data.gov.au/dataset/asgsed3/SAL/70070","SHAPE_Leng":0.330554942221,"SHAPE_Area":0.00384853093455,"fill":"#4e79a7"},"geometry":{"type":"Point","coordinates":[131.243265,-12.742945]}},{"type":"Feature","properties":{"SAL_CODE21":"70071","SAL_NAME21":"Daly River","STE_CODE21":"7","STE_NAME21":"Northern Territory","AUS_CODE21":"AUS","AUS_NAME21":"Australia","AREASQKM21":1850.9271,"LOCI_URI21":"http://linked.data.gov.au/dataset/asgsed3/SAL/70071","SHAPE_Leng":2.51385451712,"SHAPE_Area":0.154522874708,"fill":"#59a14f"},"geometry":{"type":"Point","coordinates":[130.526175,-13.586369999999999]}},{"type":"Feature","properties":{"SAL_CODE21":"70072","SAL_NAME21":"Daly Waters","STE_CODE21":"7","STE_NAME21":"Northern Territory","AUS_CODE21":"AUS","AUS_NAME21":"Australia","AREASQKM21":4.9673,"LOCI_URI21":"http://linked.data.gov.au/dataset/asgsed3/SAL/70072","SHAPE_Leng":0.0975355319628,"SHAPE_Area":0.000419931354423,"fill":"#edc949"},"geometry":{"type":"Point","coordinates":[133.37931,-16.26212]}},{"type":"Feature","properties":{"SAL_CODE21":"70073","SAL_NAME21":"Darwin City","STE_CODE21":"7","STE_NAME21":"Northern Territory","AUS_CODE21":"AUS","AUS_NAME21":"Australia","AREASQKM21":3.1731,"LOCI_URI21":"http://linked.data.gov.au/dataset/asgsed3/SAL/70073","SHAPE_Leng":0.0818928754197,"SHAPE_Area":0.000263898689344,"fill":"#ff9da7"},"geometry":{"type":"Point","coordinates":[130.842625,-12.46299]}},{"type":"Feature","properties":{"SAL_CODE21":"70074","SAL_NAME21":"Darwin River","STE_CODE21":"7","STE_NAME21":"Northern Territory","AUS_CODE21":"AUS","AUS_NAME21":"Australia","AREASQKM21":142.2064,"LOCI_URI21":"http://linked.data.gov.au/dataset/asgsed3/SAL/70074","SHAPE_Leng":0.476141756077,"SHAPE_Area":0.0118405356297,"fill":"#76b7b2"},"geometry":{"type":"Point","coordinates":[130.96407,-12.816009999999999]}},{"type":"Feature","properties":{"SAL_CODE21":"70075","SAL_NAME21":"Darwin River Dam","STE_CODE21":"7","STE_NAME21":"Northern Territory","AUS_CODE21":"AUS","AUS_NAME21":"Australia","AREASQKM21":264.8614,"LOCI_URI21":"http://linked.data.gov.au/dataset/asgsed3/SAL/70075","SHAPE_Leng":0.804564838336,"SHAPE_Area":0.0220597723824,"fill":"#9c755f"},"geometry":{"type":"Point","coordinates":[131.038655,-12.895965]}},{"type":"Feature","properties":{"SAL_CODE21":"70076","SAL_NAME21":"Davenport (NT)","STE_CODE21":"7","STE_NAME21":"Northern Territory","AUS_CODE21":"AUS","AUS_NAME21":"Australia","AREASQKM21":28761.4843,"LOCI_URI21":"http://linked.data.gov.au/dataset/asgsed3/SAL/70076","SHAPE_Leng":9.40474228813,"SHAPE_Area":2.49775741036,"fill":"#59a14f"},"geometry":{"type":"Point","coordinates":[134.81793,-20.896165]}},{"type":"Feature","properties":{"SAL_CODE21":"70077","SAL_NAME21":"Delamere (NT)","STE_CODE21":"7","STE_NAME21":"Northern Territory","AUS_CODE21":"AUS","AUS_NAME21":"Australia","AREASQKM21":11404.0114,"LOCI_URI21":"http://linked.data.gov.au/dataset/asgsed3/SAL/70077","SHAPE_Leng":4.71940265641,"SHAPE_Area":0.96010245101,"fill":"#9c755f"},"geometry":{"type":"Point","coordinates":[131.60325,-15.329170000000001]}},{"type":"Feature","properties":{"SAL_CODE21":"70078","SAL_NAME21":"Desert Springs","STE_CODE21":"7","STE_NAME21":"Northern Territory","AUS_CODE21":"AUS","AUS_NAME21":"Australia","AREASQKM21":2.4772,"LOCI_URI21":"http://linked.data.gov.au/dataset/asgsed3/SAL/70078","SHAPE_Leng":0.0747524648385,"SHAPE_Area":0.000219327041692,"fill":"#edc949"},"geometry":{"type":"Point","coordinates":[133.88556,-23.712505]}},{"type":"Feature","properties":{"SAL_CODE21":"70079","SAL_NAME21":"Douglas-Daly","STE_CODE21":"7","STE_NAME21":"Northern Territory","AUS_CODE21":"AUS","AUS_NAME21":"Australia","AREASQKM21":4903.0577,"LOCI_URI21":"http://linked.data.gov.au/dataset/asgsed3/SAL/70079","SHAPE_Leng":3.34477164084,"SHAPE_Area":0.409892266645,"fill":"#ff9da7"},"geometry":{"type":"Point","coordinates":[131.52579500000002,-13.795675]}},{"type":"Feature","properties":{"SAL_CODE21":"70080","SAL_NAME21":"Driver","STE_CODE21":"7","STE_NAME21":"Northern Territory","AUS_CODE21":"AUS","AUS_NAME21":"Australia","AREASQKM21":1.7157,"LOCI_URI21":"http://linked.data.gov.au/dataset/asgsed3/SAL/70080","SHAPE_Leng":0.0575770211726,"SHAPE_Area":0.000142668804701,"fill":"#af7aa1"},"geometry":{"type":"Point","coordinates":[130.976945,-12.487025]}},{"type":"Feature","properties":{"SAL_CODE21":"70081","SAL_NAME21":"Dundee Beach","STE_CODE21":"7","STE_NAME21":"Northern Territory","AUS_CODE21":"AUS","AUS_NAME21":"Australia","AREASQKM21":74.7973,"LOCI_URI21":"http://linked.data.gov.au/dataset/asgsed3/SAL/70081","SHAPE_Leng":0.375353966277,"SHAPE_Area":0.0062257799413,"fill":"#bab0ab"},"geometry":{"type":"Point","coordinates":[130.384955,-12.730775000000001]}},{"type":"Feature","properties":{"SAL_CODE21":"70082","SAL_NAME21":"Dundee Downs","STE_CODE21":"7","STE_NAME21":"Northern Territory","AUS_CODE21":"AUS","AUS_NAME21":"Australia","AREASQKM21":36.9739,"LOCI_URI21":"http://linked.data.gov.au/dataset/asgsed3/SAL/70082","SHAPE_Leng":0.311394152829,"SHAPE_Area":0.00307789410582,"fill":"#4e79a7"},"geometry":{"type":"Point","coordinates":[130.51138,-12.76124]}},{"type":"Feature","properties":{"SAL_CODE21":"70083","SAL_NAME21":"Dundee Forest","STE_CODE21":"7","STE_NAME21":"Northern Territory","AUS_CODE21":"AUS","AUS_NAME21":"Australia","AREASQKM21":178.7919,"LOCI_URI21":"http://linked.data.gov.au/dataset/asgsed3/SAL/70083","SHAPE_Leng":0.749686918791,"SHAPE_Area":0.0148813573576,"fill":"#9c755f"},"geometry":{"type":"Point","coordinates":[130.462045,-12.727730000000001]}},{"type":"Feature","properties":{"SAL_CODE21":"70084","SAL_NAME21":"Durack (NT)","STE_CODE21":"7","STE_NAME21":"Northern Territory","AUS_CODE21":"AUS","AUS_NAME21":"Australia","AREASQKM21":2.9405,"LOCI_URI21":"http://linked.data.gov.au/dataset/asgsed3/SAL/70084","SHAPE_Leng":0.0608945897606,"SHAPE_Area":0.000244514812737,"fill":"#4e79a7"},"geometry":{"type":"Point","coordinates":[130.97223000000002,-12.472565]}},{"type":"Feature","properties":{"SAL_CODE21":"70085","SAL_NAME21":"East Arm","STE_CODE21":"7","STE_NAME21":"Northern Territory","AUS_CODE21":"AUS","AUS_NAME21":"Australia","AREASQKM21":14.3507,"LOCI_URI21":"http://linked.data.gov.au/dataset/asgsed3/SAL/70085","SHAPE_Leng":0.204978728856,"SHAPE_Area":0.00119331425306,"fill":"#e15759"},"geometry":{"type":"Point","coordinates":[130.90496000000002,-12.473115]}},{"type":"Feature","properties":{"SAL_CODE21":"70086","SAL_NAME21":"East Arnhem","STE_CODE21":"7","STE_NAME21":"Northern Territory","AUS_CODE21":"AUS","AUS_NAME21":"Australia","AREASQKM21":30871.2252,"LOCI_URI21":"http://linked.data.gov.au/dataset/asgsed3/SAL/70086","SHAPE_Leng":30.9455948963,"SHAPE_Area":2.57059324025,"fill":"#76b7b2"},"geometry":{"type":"Point","coordinates":[135.813885,-12.66178]}},{"type":"Feature","properties":{"SAL_CODE21":"70087","SAL_NAME21":"East Point","STE_CODE21":"7","STE_NAME21":"Northern Territory","AUS_CODE21":"AUS","AUS_NAME21":"Australia","AREASQKM21":2.377,"LOCI_URI21":"http://linked.data.gov.au/dataset/asgsed3/SAL/70087","SHAPE_Leng":0.0835569778586,"SHAPE_Area":0.000197609029062,"fill":"#af7aa1"},"geometry":{"type":"Point","coordinates":[130.83103,-12.412465000000001]}},{"type":"Feature","properties":{"SAL_CODE21":"70088","SAL_NAME21":"East Side","STE_CODE21":"7","STE_NAME21":"Northern Territory","AUS_CODE21":"AUS","AUS_NAME21":"Australia","AREASQKM21":3.8802,"LOCI_URI21":"http://linked.data.gov.au/dataset/asgsed3/SAL/70088","SHAPE_Leng":0.0886417083598,"SHAPE_Area":0.000343499936384,"fill":"#9c755f"},"geometry":{"type":"Point","coordinates":[133.899085,-23.692059999999998]}},{"type":"Feature","properties":{"SAL_CODE21":"70089","SAL_NAME21":"Eaton (NT)","STE_CODE21":"7","STE_NAME21":"Northern Territory","AUS_CODE21":"AUS","AUS_NAME21":"Australia","AREASQKM21":15.4015,"LOCI_URI21":"http://linked.data.gov.au/dataset/asgsed3/SAL/70089","SHAPE_Leng":0.16083154504,"SHAPE_Area":0.00128038175515,"fill":"#4e79a7"},"geometry":{"type":"Point","coordinates":[130.88227999999998,-12.41088]}},{"type":"Feature","properties":{"SAL_CODE21":"70090","SAL_NAME21":"Edith (NT)","STE_CODE21":"7","STE_NAME21":"Northern Territory","AUS_CODE21":"AUS","AUS_NAME21":"Australia","AREASQKM21":1138.7487,"LOCI_URI21":"http://linked.data.gov.au/dataset/asgsed3/SAL/70090","SHAPE_Leng":1.93803803436,"SHAPE_Area":0.0953023390565,"fill":"#f28e2c"},"geometry":{"type":"Point","coordinates":[131.92353,-14.091515000000001]}},{"type":"Feature","properties":{"SAL_CODE21":"70091","SAL_NAME21":"Elliott (NT)","STE_CODE21":"7","STE_NAME21":"Northern Territory","AUS_CODE21":"AUS","AUS_NAME21":"Australia","AREASQKM21":2.996,"LOCI_URI21":"http://linked.data.gov.au/dataset/asgsed3/SAL/70091","SHAPE_Leng":0.0917214102408,"SHAPE_Area":0.000254976196888,"fill":"#f28e2c"},"geometry":{"type":"Point","coordinates":[133.545625,-17.552390000000003]}},{"type":"Feature","properties":{"SAL_CODE21":"70092","SAL_NAME21":"Elrundie","STE_CODE21":"7","STE_NAME21":"Northern Territory","AUS_CODE21":"AUS","AUS_NAME21":"Australia","AREASQKM21":7.7699,"LOCI_URI21":"http://linked.data.gov.au/dataset/asgsed3/SAL/70092","SHAPE_Leng":0.108047842607,"SHAPE_Area":0.000646114485608,"fill":"#bab0ab"},"geometry":{"type":"Point","coordinates":[130.946865,-12.48766]}},{"type":"Feature","properties":{"SAL_CODE21":"70093","SAL_NAME21":"Elsey","STE_CODE21":"7","STE_NAME21":"Northern Territory","AUS_CODE21":"AUS","AUS_NAME21":"Australia","AREASQKM21":8447.7768,"LOCI_URI21":"http://linked.data.gov.au/dataset/asgsed3/SAL/70093","SHAPE_Leng":5.50903421015,"SHAPE_Area":0.710048279741,"fill":"#f28e2c"},"geometry":{"type":"Point","coordinates":[133.232885,-15.131155]}},{"type":"Feature","properties":{"SAL_CODE21":"70094","SAL_NAME21":"Emungalan","STE_CODE21":"7","STE_NAME21":"Northern Territory","AUS_CODE21":"AUS","AUS_NAME21":"Australia","AREASQKM21":70.012,"LOCI_URI21":"http://linked.data.gov.au/dataset/asgsed3/SAL/70094","SHAPE_Leng":0.377077665923,"SHAPE_Area":0.00586771511761,"fill":"#e15759"},"geometry":{"type":"Point","coordinates":[132.28280999999998,-14.414945]}},{"type":"Feature","properties":{"SAL_CODE21":"70095","SAL_NAME21":"Engawala","STE_CODE21":"7","STE_NAME21":"Northern Territory","AUS_CODE21":"AUS","AUS_NAME21":"Australia","AREASQKM21":3.8271,"LOCI_URI21":"http://linked.data.gov.au/dataset/asgsed3/SAL/70095","SHAPE_Leng":0.0733402639249,"SHAPE_Area":0.000336597415875,"fill":"#bab0ab"},"geometry":{"type":"Point","coordinates":[134.45771000000002,-22.803530000000002]}},{"type":"Feature","properties":{"SAL_CODE21":"70096","SAL_NAME21":"Eva Valley","STE_CODE21":"7","STE_NAME21":"Northern Territory","AUS_CODE21":"AUS","AUS_NAME21":"Australia","AREASQKM21":57.199,"LOCI_URI21":"http://linked.data.gov.au/dataset/asgsed3/SAL/70096","SHAPE_Leng":0.333909144145,"SHAPE_Area":0.00476830210621,"fill":"#e15759"},"geometry":{"type":"Point","coordinates":[131.00696499999998,-13.131585]}},{"type":"Feature","properties":{"SAL_CODE21":"70097","SAL_NAME21":"Fannie Bay","STE_CODE21":"7","STE_NAME21":"Northern Territory","AUS_CODE21":"AUS","AUS_NAME21":"Australia","AREASQKM21":2.1168,"LOCI_URI21":"http://linked.data.gov.au/dataset/asgsed3/SAL/70097","SHAPE_Leng":0.0806763450407,"SHAPE_Area":0.000175968361478,"fill":"#59a14f"},"geometry":{"type":"Point","coordinates":[130.84007,-12.427545]}},{"type":"Feature","properties":{"SAL_CODE21":"70098","SAL_NAME21":"Farrar","STE_CODE21":"7","STE_NAME21":"Northern Territory","AUS_CODE21":"AUS","AUS_NAME21":"Australia","AREASQKM21":1.4709,"LOCI_URI21":"http://linked.data.gov.au/dataset/asgsed3/SAL/70098","SHAPE_Leng":0.0502344655951,"SHAPE_Area":0.000122299745622,"fill":"#bab0ab"},"geometry":{"type":"Point","coordinates":[130.997635,-12.479865]}},{"type":"Feature","properties":{"SAL_CODE21":"70099","SAL_NAME21":"Finke","STE_CODE21":"7","STE_NAME21":"Northern Territory","AUS_CODE21":"AUS","AUS_NAME21":"Australia","AREASQKM21":28.7808,"LOCI_URI21":"http://linked.data.gov.au/dataset/asgsed3/SAL/70099","SHAPE_Leng":0.203819884439,"SHAPE_Area":0.00258564702392,"fill":"#e15759"},"geometry":{"type":"Point","coordinates":[134.57574499999998,-25.569634999999998]}},{"type":"Feature","properties":{"SAL_CODE21":"70100","SAL_NAME21":"Finniss Valley","STE_CODE21":"7","STE_NAME21":"Northern Territory","AUS_CODE21":"AUS","AUS_NAME21":"Australia","AREASQKM21":107.7468,"LOCI_URI21":"http://linked.data.gov.au/dataset/asgsed3/SAL/70100","SHAPE_Leng":0.650051712158,"SHAPE_Area":0.00897864869919,"fill":"#edc949"},"geometry":{"type":"Point","coordinates":[130.95179000000002,-13.02412]}},{"type":"Feature","properties":{"SAL_CODE21":"70101","SAL_NAME21":"Florina","STE_CODE21":"7","STE_NAME21":"Northern Territory","AUS_CODE21":"AUS","AUS_NAME21":"Australia","AREASQKM21":1410.8605,"LOCI_URI21":"http://linked.data.gov.au/dataset/asgsed3/SAL/70101","SHAPE_Leng":1.67609713485,"SHAPE_Area":0.118300922117,"fill":"#76b7b2"},"geometry":{"type":"Point","coordinates":[131.90236,-14.51789]}},{"type":"Feature","properties":{"SAL_CODE21":"70102","SAL_NAME21":"Fly Creek","STE_CODE21":"7","STE_NAME21":"Northern Territory","AUS_CODE21":"AUS","AUS_NAME21":"Australia","AREASQKM21":32.9846,"LOCI_URI21":"http://linked.data.gov.au/dataset/asgsed3/SAL/70102","SHAPE_Leng":0.222499401948,"SHAPE_Area":0.00274616157001,"fill":"#e15759"},"geometry":{"type":"Point","coordinates":[131.068895,-12.797525]}},{"type":"Feature","properties":{"SAL_CODE21":"70103","SAL_NAME21":"Flying Fox (NT)","STE_CODE21":"7","STE_NAME21":"Northern Territory","AUS_CODE21":"AUS","AUS_NAME21":"Australia","AREASQKM21":17516.1858,"LOCI_URI21":"http://linked.data.gov.au/dataset/asgsed3/SAL/70103","SHAPE_Leng":8.16160739243,"SHAPE_Area":1.46647831922,"fill":"#af7aa1"},"geometry":{"type":"Point","coordinates":[134.121205,-13.988935000000001]}},{"type":"Feature","properties":{"SAL_CODE21":"70104","SAL_NAME21":"Flynn (NT)","STE_CODE21":"7","STE_NAME21":"Northern Territory","AUS_CODE21":"AUS","AUS_NAME21":"Australia","AREASQKM21":14.5147,"LOCI_URI21":"http://linked.data.gov.au/dataset/asgsed3/SAL/70104","SHAPE_Leng":0.161080934298,"SHAPE_Area":0.00128512941307,"fill":"#bab0ab"},"geometry":{"type":"Point","coordinates":[133.83903,-23.71208]}},{"type":"Feature","properties":{"SAL_CODE21":"70105","SAL_NAME21":"Freds Pass","STE_CODE21":"7","STE_NAME21":"Northern Territory","AUS_CODE21":"AUS","AUS_NAME21":"Australia","AREASQKM21":2.3133,"LOCI_URI21":"http://linked.data.gov.au/dataset/asgsed3/SAL/70105","SHAPE_Leng":0.0696874632435,"SHAPE_Area":0.000192400971028,"fill":"#76b7b2"},"geometry":{"type":"Point","coordinates":[131.0538,-12.536335000000001]}},{"type":"Feature","properties":{"SAL_CODE21":"70106","SAL_NAME21":"Galiwinku","STE_CODE21":"7","STE_NAME21":"Northern Territory","AUS_CODE21":"AUS","AUS_NAME21":"Australia","AREASQKM21":4.8496,"LOCI_URI21":"http://linked.data.gov.au/dataset/asgsed3/SAL/70106","SHAPE_Leng":0.0935425354515,"SHAPE_Area":0.000402597070295,"fill":"#bab0ab"},"geometry":{"type":"Point","coordinates":[135.572715,-12.025475]}},{"type":"Feature","properties":{"SAL_CODE21":"70107","SAL_NAME21":"Gapuwiyak","STE_CODE21":"7","STE_NAME21":"Northern Territory","AUS_CODE21":"AUS","AUS_NAME21":"Australia","AREASQKM21":11.9273,"LOCI_URI21":"http://linked.data.gov.au/dataset/asgsed3/SAL/70107","SHAPE_Leng":0.134921011496,"SHAPE_Area":0.000991894440812,"fill":"#af7aa1"},"geometry":{"type":"Point","coordinates":[135.795185,-12.503425]}},{"type":"Feature","properties":{"SAL_CODE21":"70108","SAL_NAME21":"Ghan","STE_CODE21":"7","STE_NAME21":"Northern Territory","AUS_CODE21":"AUS","AUS_NAME21":"Australia","AREASQKM21":55294.1664,"LOCI_URI21":"http://linked.data.gov.au/dataset/asgsed3/SAL/70108","SHAPE_Leng":13.4169062789,"SHAPE_Area":4.95529668134,"fill":"#9c755f"},"geometry":{"type":"Point","coordinates":[133.945325,-25.066865]}},{"type":"Feature","properties":{"SAL_CODE21":"70109","SAL_NAME21":"Gillen","STE_CODE21":"7","STE_NAME21":"Northern Territory","AUS_CODE21":"AUS","AUS_NAME21":"Australia","AREASQKM21":2.5479,"LOCI_URI21":"http://linked.data.gov.au/dataset/asgsed3/SAL/70109","SHAPE_Leng":0.0716937625419,"SHAPE_Area":0.000225599680365,"fill":"#4e79a7"},"geometry":{"type":"Point","coordinates":[133.86594000000002,-23.710929999999998]}},{"type":"Feature","properties":{"SAL_CODE21":"70110","SAL_NAME21":"Girraween (NT)","STE_CODE21":"7","STE_NAME21":"Northern Territory","AUS_CODE21":"AUS","AUS_NAME21":"Australia","AREASQKM21":23.5967,"LOCI_URI21":"http://linked.data.gov.au/dataset/asgsed3/SAL/70110","SHAPE_Leng":0.235555059178,"SHAPE_Area":0.00196251218046,"fill":"#ff9da7"},"geometry":{"type":"Point","coordinates":[131.09629999999999,-12.525595]}},{"type":"Feature","properties":{"SAL_CODE21":"70111","SAL_NAME21":"Glyde Point","STE_CODE21":"7","STE_NAME21":"Northern Territory","AUS_CODE21":"AUS","AUS_NAME21":"Australia","AREASQKM21":41.1709,"LOCI_URI21":"http://linked.data.gov.au/dataset/asgsed3/SAL/70111","SHAPE_Leng":0.275761556072,"SHAPE_Area":0.00341982535034,"fill":"#9c755f"},"geometry":{"type":"Point","coordinates":[131.07623999999998,-12.18518]}},{"type":"Feature","properties":{"SAL_CODE21":"70112","SAL_NAME21":"Gray (NT)","STE_CODE21":"7","STE_NAME21":"Northern Territory","AUS_CODE21":"AUS","AUS_NAME21":"Australia","AREASQKM21":1.5029,"LOCI_URI21":"http://linked.data.gov.au/dataset/asgsed3/SAL/70112","SHAPE_Leng":0.0443707552008,"SHAPE_Area":0.000124963973479,"fill":"#edc949"},"geometry":{"type":"Point","coordinates":[130.981745,-12.490475]}},{"type":"Feature","properties":{"SAL_CODE21":"70113","SAL_NAME21":"Gregory (NT)","STE_CODE21":"7","STE_NAME21":"Northern Territory","AUS_CODE21":"AUS","AUS_NAME21":"Australia","AREASQKM21":15509.21,"LOCI_URI21":"http://linked.data.gov.au/dataset/asgsed3/SAL/70113","SHAPE_Leng":7.95412242861,"SHAPE_Area":1.31144438586,"fill":"#76b7b2"},"geometry":{"type":"Point","coordinates":[130.6904,-16.285235]}},{"type":"Feature","properties":{"SAL_CODE21":"70114","SAL_NAME21":"Gulung Mardrulk","STE_CODE21":"7","STE_NAME21":"Northern Territory","AUS_CODE21":"AUS","AUS_NAME21":"Australia","AREASQKM21":18051.191,"LOCI_URI21":"http://linked.data.gov.au/dataset/asgsed3/SAL/70114","SHAPE_Leng":6.48839949029,"SHAPE_Area":1.50799770758,"fill":"#bab0ab"},"geometry":{"type":"Point","coordinates":[133.62747,-13.563275]}},{"type":"Feature","properties":{"SAL_CODE21":"70115","SAL_NAME21":"Gunbalanya","STE_CODE21":"7","STE_NAME21":"Northern Territory","AUS_CODE21":"AUS","AUS_NAME21":"Australia","AREASQKM21":511.7884,"LOCI_URI21":"http://linked.data.gov.au/dataset/asgsed3/SAL/70115","SHAPE_Leng":1.09954206037,"SHAPE_Area":0.0425501068121,"fill":"#59a14f"},"geometry":{"type":"Point","coordinates":[133.004795,-12.354245]}},{"type":"Feature","properties":{"SAL_CODE21":"70116","SAL_NAME21":"Gunn","STE_CODE21":"7","STE_NAME21":"Northern Territory","AUS_CODE21":"AUS","AUS_NAME21":"Australia","AREASQKM21":1.4471,"LOCI_URI21":"http://linked.data.gov.au/dataset/asgsed3/SAL/70116","SHAPE_Leng":0.0484604029224,"SHAPE_Area":0.000120319885513,"fill":"#59a14f"},"geometry":{"type":"Point","coordinates":[130.99409,-12.487435000000001]}},{"type":"Feature","properties":{"SAL_CODE21":"70117","SAL_NAME21":"Gunn Point","STE_CODE21":"7","STE_NAME21":"Northern Territory","AUS_CODE21":"AUS","AUS_NAME21":"Australia","AREASQKM21":37.4736,"LOCI_URI21":"http://linked.data.gov.au/dataset/asgsed3/SAL/70117","SHAPE_Leng":0.301141547388,"SHAPE_Area":0.00311264231525,"fill":"#bab0ab"},"geometry":{"type":"Point","coordinates":[131.02489500000001,-12.181805]}},{"type":"Feature","properties":{"SAL_CODE21":"70118","SAL_NAME21":"Gunyangara","STE_CODE21":"7","STE_NAME21":"Northern Territory","AUS_CODE21":"AUS","AUS_NAME21":"Australia","AREASQKM21":2.8863,"LOCI_URI21":"http://linked.data.gov.au/dataset/asgsed3/SAL/70118","SHAPE_Leng":0.102628512331,"SHAPE_Area":0.00023977872977,"fill":"#ff9da7"},"geometry":{"type":"Point","coordinates":[136.70412,-12.217125]}},{"type":"Feature","properties":{"SAL_CODE21":"70119","SAL_NAME21":"Gurindji","STE_CODE21":"7","STE_NAME21":"Northern Territory","AUS_CODE21":"AUS","AUS_NAME21":"Australia","AREASQKM21":32372.6983,"LOCI_URI21":"http://linked.data.gov.au/dataset/asgsed3/SAL/70119","SHAPE_Leng":11.9646368976,"SHAPE_Area":2.76555335064,"fill":"#59a14f"},"geometry":{"type":"Point","coordinates":[130.780665,-18.15622]}},{"type":"Feature","properties":{"SAL_CODE21":"70120","SAL_NAME21":"Haasts Bluff","STE_CODE21":"7","STE_NAME21":"Northern Territory","AUS_CODE21":"AUS","AUS_NAME21":"Australia","AREASQKM21":5.8117,"LOCI_URI21":"http://linked.data.gov.au/dataset/asgsed3/SAL/70120","SHAPE_Leng":0.117970918131,"SHAPE_Area":0.000513565288089,"fill":"#9c755f"},"geometry":{"type":"Point","coordinates":[131.86535,-23.45221]}},{"type":"Feature","properties":{"SAL_CODE21":"70121","SAL_NAME21":"Hale","STE_CODE21":"7","STE_NAME21":"Northern Territory","AUS_CODE21":"AUS","AUS_NAME21":"Australia","AREASQKM21":21949.3816,"LOCI_URI21":"http://linked.data.gov.au/dataset/asgsed3/SAL/70121","SHAPE_Leng":9.03277812281,"SHAPE_Area":1.94887540511,"fill":"#af7aa1"},"geometry":{"type":"Point","coordinates":[134.94226500000002,-24.047719999999998]}},{"type":"Feature","properties":{"SAL_CODE21":"70122","SAL_NAME21":"Hart (NT)","STE_CODE21":"7","STE_NAME21":"Northern Territory","AUS_CODE21":"AUS","AUS_NAME21":"Australia","AREASQKM21":18161.0435,"LOCI_URI21":"http://linked.data.gov.au/dataset/asgsed3/SAL/70122","SHAPE_Leng":6.99986029717,"SHAPE_Area":1.60030488727,"fill":"#edc949"},"geometry":{"type":"Point","coordinates":[135.10774,-23.03509]}},{"type":"Feature","properties":{"SAL_CODE21":"70123","SAL_NAME21":"Herbert","STE_CODE21":"7","STE_NAME21":"Northern Territory","AUS_CODE21":"AUS","AUS_NAME21":"Australia","AREASQKM21":35.6854,"LOCI_URI21":"http://linked.data.gov.au/dataset/asgsed3/SAL/70123","SHAPE_Leng":0.291200018504,"SHAPE_Area":0.00296804107326,"fill":"#edc949"},"geometry":{"type":"Point","coordinates":[131.159595,-12.52563]}},{"type":"Feature","properties":{"SAL_CODE21":"70124","SAL_NAME21":"Hermannsburg","STE_CODE21":"7","STE_NAME21":"Northern Territory","AUS_CODE21":"AUS","AUS_NAME21":"Australia","AREASQKM21":13.3095,"LOCI_URI21":"http://linked.data.gov.au/dataset/asgsed3/SAL/70124","SHAPE_Leng":0.152337948306,"SHAPE_Area":0.00118040832244,"fill":"#edc949"},"geometry":{"type":"Point","coordinates":[132.79255,-23.934695]}},{"type":"Feature","properties":{"SAL_CODE21":"70125","SAL_NAME21":"Hidden Valley (NT)","STE_CODE21":"7","STE_NAME21":"Northern Territory","AUS_CODE21":"AUS","AUS_NAME21":"Australia","AREASQKM21":7.7403,"LOCI_URI21":"http://linked.data.gov.au/dataset/asgsed3/SAL/70125","SHAPE_Leng":0.147646786611,"SHAPE_Area":0.000643576572871,"fill":"#76b7b2"},"geometry":{"type":"Point","coordinates":[130.90503,-12.4488]}},{"type":"Feature","properties":{"SAL_CODE21":"70126","SAL_NAME21":"Holmes","STE_CODE21":"7","STE_NAME21":"Northern Territory","AUS_CODE21":"AUS","AUS_NAME21":"Australia","AREASQKM21":13.7424,"LOCI_URI21":"http://linked.data.gov.au/dataset/asgsed3/SAL/70126","SHAPE_Leng":0.156622210715,"SHAPE_Area":0.00114236460194,"fill":"#76b7b2"},"geometry":{"type":"Point","coordinates":[130.91977,-12.387699999999999]}},{"type":"Feature","properties":{"SAL_CODE21":"70127","SAL_NAME21":"Holtze","STE_CODE21":"7","STE_NAME21":"Northern Territory","AUS_CODE21":"AUS","AUS_NAME21":"Australia","AREASQKM21":41.1983,"LOCI_URI21":"http://linked.data.gov.au/dataset/asgsed3/SAL/70127","SHAPE_Leng":0.283999840487,"SHAPE_Area":0.00342547700566,"fill":"#e15759"},"geometry":{"type":"Point","coordinates":[131.003065,-12.455365]}},{"type":"Feature","properties":{"SAL_CODE21":"70128","SAL_NAME21":"Hotham","STE_CODE21":"7","STE_NAME21":"Northern Territory","AUS_CODE21":"AUS","AUS_NAME21":"Australia","AREASQKM21":894.1042,"LOCI_URI21":"http://linked.data.gov.au/dataset/asgsed3/SAL/70128","SHAPE_Leng":1.7038572959,"SHAPE_Area":0.0743104283147,"fill":"#f28e2c"},"geometry":{"type":"Point","coordinates":[131.39548000000002,-12.279045]}},{"type":"Feature","properties":{"SAL_CODE21":"70129","SAL_NAME21":"Howard Springs","STE_CODE21":"7","STE_NAME21":"Northern Territory","AUS_CODE21":"AUS","AUS_NAME21":"Australia","AREASQKM21":76.8403,"LOCI_URI21":"http://linked.data.gov.au/dataset/asgsed3/SAL/70129","SHAPE_Leng":0.433765922946,"SHAPE_Area":0.00638946506511,"fill":"#bab0ab"},"geometry":{"type":"Point","coordinates":[131.062085,-12.467195]}},{"type":"Feature","properties":{"SAL_CODE21":"70130","SAL_NAME21":"Hugh","STE_CODE21":"7","STE_NAME21":"Northern Territory","AUS_CODE21":"AUS","AUS_NAME21":"Australia","AREASQKM21":9568.1566,"LOCI_URI21":"http://linked.data.gov.au/dataset/asgsed3/SAL/70130","SHAPE_Leng":5.77365897851,"SHAPE_Area":0.850969691657,"fill":"#bab0ab"},"geometry":{"type":"Point","coordinates":[133.61003499999998,-24.332205000000002]}},{"type":"Feature","properties":{"SAL_CODE21":"70131","SAL_NAME21":"Hughes (NT)","STE_CODE21":"7","STE_NAME21":"Northern Territory","AUS_CODE21":"AUS","AUS_NAME21":"Australia","AREASQKM21":12.6609,"LOCI_URI21":"http://linked.data.gov.au/dataset/asgsed3/SAL/70131","SHAPE_Leng":0.131338159021,"SHAPE_Area":0.00105364105486,"fill":"#af7aa1"},"geometry":{"type":"Point","coordinates":[131.09938499999998,-12.686779999999999]}},{"type":"Feature","properties":{"SAL_CODE21":"70132","SAL_NAME21":"Humpty Doo","STE_CODE21":"7","STE_NAME21":"Northern Territory","AUS_CODE21":"AUS","AUS_NAME21":"Australia","AREASQKM21":71.6484,"LOCI_URI21":"http://linked.data.gov.au/dataset/asgsed3/SAL/70132","SHAPE_Leng":0.331314756847,"SHAPE_Area":0.0059602796375,"fill":"#af7aa1"},"geometry":{"type":"Point","coordinates":[131.125895,-12.5841]}},{"type":"Feature","properties":{"SAL_CODE21":"70133","SAL_NAME21":"Ilparpa","STE_CODE21":"7","STE_NAME21":"Northern Territory","AUS_CODE21":"AUS","AUS_NAME21":"Australia","AREASQKM21":28.8798,"LOCI_URI21":"http://linked.data.gov.au/dataset/asgsed3/SAL/70133","SHAPE_Leng":0.227879782724,"SHAPE_Area":0.00255758872595,"fill":"#edc949"},"geometry":{"type":"Point","coordinates":[133.828385,-23.744895]}},{"type":"Feature","properties":{"SAL_CODE21":"70134","SAL_NAME21":"Imanpa","STE_CODE21":"7","STE_NAME21":"Northern Territory","AUS_CODE21":"AUS","AUS_NAME21":"Australia","AREASQKM21":16.2779,"LOCI_URI21":"http://linked.data.gov.au/dataset/asgsed3/SAL/70134","SHAPE_Leng":0.155776177293,"SHAPE_Area":0.00145703499585,"fill":"#f28e2c"},"geometry":{"type":"Point","coordinates":[132.56896,-25.11848]}},{"type":"Feature","properties":{"SAL_CODE21":"70135","SAL_NAME21":"Irlpme","STE_CODE21":"7","STE_NAME21":"Northern Territory","AUS_CODE21":"AUS","AUS_NAME21":"Australia","AREASQKM21":40.0388,"LOCI_URI21":"http://linked.data.gov.au/dataset/asgsed3/SAL/70135","SHAPE_Leng":0.294694362413,"SHAPE_Area":0.00354328409477,"fill":"#f28e2c"},"geometry":{"type":"Point","coordinates":[133.86516,-23.64765]}},{"type":"Feature","properties":{"SAL_CODE21":"70136","SAL_NAME21":"Jabiru","STE_CODE21":"7","STE_NAME21":"Northern Territory","AUS_CODE21":"AUS","AUS_NAME21":"Australia","AREASQKM21":13.5083,"LOCI_URI21":"http://linked.data.gov.au/dataset/asgsed3/SAL/70136","SHAPE_Leng":0.14370977119,"SHAPE_Area":0.00112408660198,"fill":"#9c755f"},"geometry":{"type":"Point","coordinates":[132.837165,-12.671035]}},{"type":"Feature","properties":{"SAL_CODE21":"70137","SAL_NAME21":"Jilkminggan","STE_CODE21":"7","STE_NAME21":"Northern Territory","AUS_CODE21":"AUS","AUS_NAME21":"Australia","AREASQKM21":6.0984,"LOCI_URI21":"http://linked.data.gov.au/dataset/asgsed3/SAL/70137","SHAPE_Leng":0.0979364109912,"SHAPE_Area":0.000512363656858,"fill":"#ff9da7"},"geometry":{"type":"Point","coordinates":[133.294665,-14.960139999999999]}},{"type":"Feature","properties":{"SAL_CODE21":"70138","SAL_NAME21":"Jingili","STE_CODE21":"7","STE_NAME21":"Northern Territory","AUS_CODE21":"AUS","AUS_NAME21":"Australia","AREASQKM21":1.3163,"LOCI_URI21":"http://linked.data.gov.au/dataset/asgsed3/SAL/70138","SHAPE_Leng":0.0427418432968,"SHAPE_Area":0.000109425231729,"fill":"#edc949"},"geometry":{"type":"Point","coordinates":[130.87204,-12.388945]}},{"type":"Feature","properties":{"SAL_CODE21":"70139","SAL_NAME21":"Johnston","STE_CODE21":"7","STE_NAME21":"Northern Territory","AUS_CODE21":"AUS","AUS_NAME21":"Australia","AREASQKM21":2.6035,"LOCI_URI21":"http://linked.data.gov.au/dataset/asgsed3/SAL/70139","SHAPE_Leng":0.063371878925,"SHAPE_Area":0.000216488201447,"fill":"#af7aa1"},"geometry":{"type":"Point","coordinates":[131.00607000000002,-12.49213]}},{"type":"Feature","properties":{"SAL_CODE21":"70140","SAL_NAME21":"Kakadu","STE_CODE21":"7","STE_NAME21":"Northern Territory","AUS_CODE21":"AUS","AUS_NAME21":"Australia","AREASQKM21":15896.8358,"LOCI_URI21":"http://linked.data.gov.au/dataset/asgsed3/SAL/70140","SHAPE_Leng":6.69326571113,"SHAPE_Area":1.32385963582,"fill":"#4e79a7"},"geometry":{"type":"Point","coordinates":[132.43908499999998,-12.940729999999999]}},{"type":"Feature","properties":{"SAL_CODE21":"70141","SAL_NAME21":"Kalkarindji","STE_CODE21":"7","STE_NAME21":"Northern Territory","AUS_CODE21":"AUS","AUS_NAME21":"Australia","AREASQKM21":6.2259,"LOCI_URI21":"http://linked.data.gov.au/dataset/asgsed3/SAL/70141","SHAPE_Leng":0.10596966513,"SHAPE_Area":0.000529545053491,"fill":"#edc949"},"geometry":{"type":"Point","coordinates":[130.833385,-17.448430000000002]}},{"type":"Feature","properties":{"SAL_CODE21":"70142","SAL_NAME21":"Kaltukatjara","STE_CODE21":"7","STE_NAME21":"Northern Territory","AUS_CODE21":"AUS","AUS_NAME21":"Australia","AREASQKM21":38.3124,"LOCI_URI21":"http://linked.data.gov.au/dataset/asgsed3/SAL/70142","SHAPE_Leng":0.257228525217,"SHAPE_Area":0.00342292867331,"fill":"#af7aa1"},"geometry":{"type":"Point","coordinates":[129.09564999999998,-24.877425000000002]}},{"type":"Feature","properties":{"SAL_CODE21":"70143","SAL_NAME21":"Karama","STE_CODE21":"7","STE_NAME21":"Northern Territory","AUS_CODE21":"AUS","AUS_NAME21":"Australia","AREASQKM21":2.0655,"LOCI_URI21":"http://linked.data.gov.au/dataset/asgsed3/SAL/70143","SHAPE_Leng":0.0544093220002,"SHAPE_Area":0.000171684009967,"fill":"#4e79a7"},"geometry":{"type":"Point","coordinates":[130.91555,-12.40032]}},{"type":"Feature","properties":{"SAL_CODE21":"70144","SAL_NAME21":"Katherine","STE_CODE21":"7","STE_NAME21":"Northern Territory","AUS_CODE21":"AUS","AUS_NAME21":"Australia","AREASQKM21":5.0199,"LOCI_URI21":"http://linked.data.gov.au/dataset/asgsed3/SAL/70144","SHAPE_Leng":0.111600294893,"SHAPE_Area":0.000420813250535,"fill":"#76b7b2"},"geometry":{"type":"Point","coordinates":[132.267745,-14.451075]}},{"type":"Feature","properties":{"SAL_CODE21":"70145","SAL_NAME21":"Katherine East","STE_CODE21":"7","STE_NAME21":"Northern Territory","AUS_CODE21":"AUS","AUS_NAME21":"Australia","AREASQKM21":7.872,"LOCI_URI21":"http://linked.data.gov.au/dataset/asgsed3/SAL/70145","SHAPE_Leng":0.127424502371,"SHAPE_Area":0.000659907137481,"fill":"#edc949"},"geometry":{"type":"Point","coordinates":[132.287445,-14.464015]}},{"type":"Feature","properties":{"SAL_CODE21":"70146","SAL_NAME21":"Katherine South","STE_CODE21":"7","STE_NAME21":"Northern Territory","AUS_CODE21":"AUS","AUS_NAME21":"Australia","AREASQKM21":5.1282,"LOCI_URI21":"http://linked.data.gov.au/dataset/asgsed3/SAL/70146","SHAPE_Leng":0.115820413985,"SHAPE_Area":0.00042990194156,"fill":"#59a14f"},"geometry":{"type":"Point","coordinates":[132.260055,-14.478145000000001]}},{"type":"Feature","properties":{"SAL_CODE21":"70147","SAL_NAME21":"Kilgariff","STE_CODE21":"7","STE_NAME21":"Northern Territory","AUS_CODE21":"AUS","AUS_NAME21":"Australia","AREASQKM21":10.1394,"LOCI_URI21":"http://linked.data.gov.au/dataset/asgsed3/SAL/70147","SHAPE_Leng":0.142131571121,"SHAPE_Area":0.000898101212559,"fill":"#af7aa1"},"geometry":{"type":"Point","coordinates":[133.885555,-23.75931]}},{"type":"Feature","properties":{"SAL_CODE21":"70148","SAL_NAME21":"Kintore","STE_CODE21":"7","STE_NAME21":"Northern Territory","AUS_CODE21":"AUS","AUS_NAME21":"Australia","AREASQKM21":8.2003,"LOCI_URI21":"http://linked.data.gov.au/dataset/asgsed3/SAL/70148","SHAPE_Leng":0.128660852966,"SHAPE_Area":0.000723701382367,"fill":"#f28e2c"},"geometry":{"type":"Point","coordinates":[129.38180499999999,-23.27368]}},{"type":"Feature","properties":{"SAL_CODE21":"70149","SAL_NAME21":"Knuckey Lagoon","STE_CODE21":"7","STE_NAME21":"Northern Territory","AUS_CODE21":"AUS","AUS_NAME21":"Australia","AREASQKM21":18.2183,"LOCI_URI21":"http://linked.data.gov.au/dataset/asgsed3/SAL/70149","SHAPE_Leng":0.171099507991,"SHAPE_Area":0.00151461250926,"fill":"#edc949"},"geometry":{"type":"Point","coordinates":[130.945425,-12.42429]}},{"type":"Feature","properties":{"SAL_CODE21":"70150","SAL_NAME21":"Koolpinyah","STE_CODE21":"7","STE_NAME21":"Northern Territory","AUS_CODE21":"AUS","AUS_NAME21":"Australia","AREASQKM21":781.8695,"LOCI_URI21":"http://linked.data.gov.au/dataset/asgsed3/SAL/70150","SHAPE_Leng":2.15831149371,"SHAPE_Area":0.0649913332183,"fill":"#59a14f"},"geometry":{"type":"Point","coordinates":[131.216385,-12.362580000000001]}},{"type":"Feature","properties":{"SAL_CODE21":"70151","SAL_NAME21":"Kunparrka","STE_CODE21":"7","STE_NAME21":"Northern Territory","AUS_CODE21":"AUS","AUS_NAME21":"Australia","AREASQKM21":5867.3435,"LOCI_URI21":"http://linked.data.gov.au/dataset/asgsed3/SAL/70151","SHAPE_Leng":3.72586978204,"SHAPE_Area":0.518055141007,"fill":"#4e79a7"},"geometry":{"type":"Point","coordinates":[131.53786,-23.34256]}},{"type":"Feature","properties":{"SAL_CODE21":"70152","SAL_NAME21":"Lajamanu","STE_CODE21":"7","STE_NAME21":"Northern Territory","AUS_CODE21":"AUS","AUS_NAME21":"Australia","AREASQKM21":7255.6765,"LOCI_URI21":"http://linked.data.gov.au/dataset/asgsed3/SAL/70152","SHAPE_Leng":3.44982045058,"SHAPE_Area":0.620624536503,"fill":"#9c755f"},"geometry":{"type":"Point","coordinates":[130.50772,-18.48091]}},{"type":"Feature","properties":{"SAL_CODE21":"70153","SAL_NAME21":"Lake Bennett","STE_CODE21":"7","STE_NAME21":"Northern Territory","AUS_CODE21":"AUS","AUS_NAME21":"Australia","AREASQKM21":164.4422,"LOCI_URI21":"http://linked.data.gov.au/dataset/asgsed3/SAL/70153","SHAPE_Leng":0.592344164391,"SHAPE_Area":0.0136978464881,"fill":"#f28e2c"},"geometry":{"type":"Point","coordinates":[131.19892,-12.916509999999999]}},{"type":"Feature","properties":{"SAL_CODE21":"70154","SAL_NAME21":"Lake Mackay","STE_CODE21":"7","STE_NAME21":"Northern Territory","AUS_CODE21":"AUS","AUS_NAME21":"Australia","AREASQKM21":77873.0893,"LOCI_URI21":"http://linked.data.gov.au/dataset/asgsed3/SAL/70154","SHAPE_Leng":16.1240636625,"SHAPE_Area":6.8441713306,"fill":"#bab0ab"},"geometry":{"type":"Point","coordinates":[130.67218000000003,-22.567995000000003]}},{"type":"Feature","properties":{"SAL_CODE21":"70155","SAL_NAME21":"Lambells Lagoon","STE_CODE21":"7","STE_NAME21":"Northern Territory","AUS_CODE21":"AUS","AUS_NAME21":"Australia","AREASQKM21":93.8952,"LOCI_URI21":"http://linked.data.gov.au/dataset/asgsed3/SAL/70155","SHAPE_Leng":0.529995356874,"SHAPE_Area":0.00781088246665,"fill":"#76b7b2"},"geometry":{"type":"Point","coordinates":[131.234955,-12.578635]}},{"type":"Feature","properties":{"SAL_CODE21":"70156","SAL_NAME21":"Lansdowne (NT)","STE_CODE21":"7","STE_NAME21":"Northern Territory","AUS_CODE21":"AUS","AUS_NAME21":"Australia","AREASQKM21":206.1653,"LOCI_URI21":"http://linked.data.gov.au/dataset/asgsed3/SAL/70156","SHAPE_Leng":0.786988862223,"SHAPE_Area":0.017280424144,"fill":"#9c755f"},"geometry":{"type":"Point","coordinates":[132.38432,-14.417365]}},{"type":"Feature","properties":{"SAL_CODE21":"70157","SAL_NAME21":"Laramba","STE_CODE21":"7","STE_NAME21":"Northern Territory","AUS_CODE21":"AUS","AUS_NAME21":"Australia","AREASQKM21":5.0806,"LOCI_URI21":"http://linked.data.gov.au/dataset/asgsed3/SAL/70157","SHAPE_Leng":0.095681644359,"SHAPE_Area":0.000446012680895,"fill":"#59a14f"},"geometry":{"type":"Point","coordinates":[132.764975,-22.54099]}},{"type":"Feature","properties":{"SAL_CODE21":"70158","SAL_NAME21":"Larapinta (NT)","STE_CODE21":"7","STE_NAME21":"Northern Territory","AUS_CODE21":"AUS","AUS_NAME21":"Australia","AREASQKM21":14.4977,"LOCI_URI21":"http://linked.data.gov.au/dataset/asgsed3/SAL/70158","SHAPE_Leng":0.147108441925,"SHAPE_Area":0.00128334552362,"fill":"#4e79a7"},"geometry":{"type":"Point","coordinates":[133.833255,-23.681745]}},{"type":"Feature","properties":{"SAL_CODE21":"70159","SAL_NAME21":"Larrakeyah","STE_CODE21":"7","STE_NAME21":"Northern Territory","AUS_CODE21":"AUS","AUS_NAME21":"Australia","AREASQKM21":1.9452,"LOCI_URI21":"http://linked.data.gov.au/dataset/asgsed3/SAL/70159","SHAPE_Leng":0.0812600614297,"SHAPE_Area":0.000161740082846,"fill":"#9c755f"},"geometry":{"type":"Point","coordinates":[130.825175,-12.454815]}},{"type":"Feature","properties":{"SAL_CODE21":"70160","SAL_NAME21":"Larrimah","STE_CODE21":"7","STE_NAME21":"Northern Territory","AUS_CODE21":"AUS","AUS_NAME21":"Australia","AREASQKM21":61.19,"LOCI_URI21":"http://linked.data.gov.au/dataset/asgsed3/SAL/70160","SHAPE_Leng":0.349261637039,"SHAPE_Area":0.00515649493873,"fill":"#4e79a7"},"geometry":{"type":"Point","coordinates":[133.22122000000002,-15.609485]}},{"type":"Feature","properties":{"SAL_CODE21":"70161","SAL_NAME21":"Leanyer","STE_CODE21":"7","STE_NAME21":"Northern Territory","AUS_CODE21":"AUS","AUS_NAME21":"Australia","AREASQKM21":2.5017,"LOCI_URI21":"http://linked.data.gov.au/dataset/asgsed3/SAL/70161","SHAPE_Leng":0.0593152357511,"SHAPE_Area":0.000207920800475,"fill":"#59a14f"},"geometry":{"type":"Point","coordinates":[130.89910500000002,-12.375164999999999]}},{"type":"Feature","properties":{"SAL_CODE21":"70162","SAL_NAME21":"Lee Point","STE_CODE21":"7","STE_NAME21":"Northern Territory","AUS_CODE21":"AUS","AUS_NAME21":"Australia","AREASQKM21":4.3642,"LOCI_URI21":"http://linked.data.gov.au/dataset/asgsed3/SAL/70162","SHAPE_Leng":0.081530428847,"SHAPE_Area":0.000362724154998,"fill":"#f28e2c"},"geometry":{"type":"Point","coordinates":[130.89285,-12.34057]}},{"type":"Feature","properties":{"SAL_CODE21":"70163","SAL_NAME21":"Limmen","STE_CODE21":"7","STE_NAME21":"Northern Territory","AUS_CODE21":"AUS","AUS_NAME21":"Australia","AREASQKM21":14960.8573,"LOCI_URI21":"http://linked.data.gov.au/dataset/asgsed3/SAL/70163","SHAPE_Leng":7.74007844337,"SHAPE_Area":1.2583489552,"fill":"#4e79a7"},"geometry":{"type":"Point","coordinates":[134.921865,-15.259135]}},{"type":"Feature","properties":{"SAL_CODE21":"70164","SAL_NAME21":"Litchfield Park","STE_CODE21":"7","STE_NAME21":"Northern Territory","AUS_CODE21":"AUS","AUS_NAME21":"Australia","AREASQKM21":1462.2084,"LOCI_URI21":"http://linked.data.gov.au/dataset/asgsed3/SAL/70164","SHAPE_Leng":2.07789198586,"SHAPE_Area":0.121954475412,"fill":"#76b7b2"},"geometry":{"type":"Point","coordinates":[130.876735,-13.279125]}},{"type":"Feature","properties":{"SAL_CODE21":"70165","SAL_NAME21":"Livingstone","STE_CODE21":"7","STE_NAME21":"Northern Territory","AUS_CODE21":"AUS","AUS_NAME21":"Australia","AREASQKM21":50.4952,"LOCI_URI21":"http://linked.data.gov.au/dataset/asgsed3/SAL/70165","SHAPE_Leng":0.340355127462,"SHAPE_Area":0.00420308480905,"fill":"#edc949"},"geometry":{"type":"Point","coordinates":[131.05516,-12.72633]}},{"type":"Feature","properties":{"SAL_CODE21":"70166","SAL_NAME21":"Lloyd Creek","STE_CODE21":"7","STE_NAME21":"Northern Territory","AUS_CODE21":"AUS","AUS_NAME21":"Australia","AREASQKM21":50.7826,"LOCI_URI21":"http://linked.data.gov.au/dataset/asgsed3/SAL/70166","SHAPE_Leng":0.314440852785,"SHAPE_Area":0.00422578861368,"fill":"#59a14f"},"geometry":{"type":"Point","coordinates":[131.16080499999998,-12.65765]}},{"type":"Feature","properties":{"SAL_CODE21":"70167","SAL_NAME21":"Ludmilla","STE_CODE21":"7","STE_NAME21":"Northern Territory","AUS_CODE21":"AUS","AUS_NAME21":"Australia","AREASQKM21":3.9454,"LOCI_URI21":"http://linked.data.gov.au/dataset/asgsed3/SAL/70167","SHAPE_Leng":0.10076102041,"SHAPE_Area":0.000327999988328,"fill":"#f28e2c"},"geometry":{"type":"Point","coordinates":[130.84764,-12.416595000000001]}},{"type":"Feature","properties":{"SAL_CODE21":"70168","SAL_NAME21":"Lyons (NT)","STE_CODE21":"7","STE_NAME21":"Northern Territory","AUS_CODE21":"AUS","AUS_NAME21":"Australia","AREASQKM21":0.9661,"LOCI_URI21":"http://linked.data.gov.au/dataset/asgsed3/SAL/70168","SHAPE_Leng":0.042025882286,"SHAPE_Area":0.0000803063447487,"fill":"#4e79a7"},"geometry":{"type":"Point","coordinates":[130.88905499999998,-12.358789999999999]}},{"type":"Feature","properties":{"SAL_CODE21":"70169","SAL_NAME21":"Malak","STE_CODE21":"7","STE_NAME21":"Northern Territory","AUS_CODE21":"AUS","AUS_NAME21":"Australia","AREASQKM21":1.7493,"LOCI_URI21":"http://linked.data.gov.au/dataset/asgsed3/SAL/70169","SHAPE_Leng":0.0490040200668,"SHAPE_Area":0.00014542405436,"fill":"#59a14f"},"geometry":{"type":"Point","coordinates":[130.90401,-12.39333]}},{"type":"Feature","properties":{"SAL_CODE21":"70170","SAL_NAME21":"Manbulloo","STE_CODE21":"7","STE_NAME21":"Northern Territory","AUS_CODE21":"AUS","AUS_NAME21":"Australia","AREASQKM21":4228.5859,"LOCI_URI21":"http://linked.data.gov.au/dataset/asgsed3/SAL/70170","SHAPE_Leng":2.67320331076,"SHAPE_Area":0.355081096595,"fill":"#e15759"},"geometry":{"type":"Point","coordinates":[132.26395000000002,-14.80905]}},{"type":"Feature","properties":{"SAL_CODE21":"70171","SAL_NAME21":"Mandorah","STE_CODE21":"7","STE_NAME21":"Northern Territory","AUS_CODE21":"AUS","AUS_NAME21":"Australia","AREASQKM21":1.179,"LOCI_URI21":"http://linked.data.gov.au/dataset/asgsed3/SAL/70171","SHAPE_Leng":0.0481104172485,"SHAPE_Area":0.0000980346799748,"fill":"#ff9da7"},"geometry":{"type":"Point","coordinates":[130.76122,-12.44234]}},{"type":"Feature","properties":{"SAL_CODE21":"70172","SAL_NAME21":"Maningrida","STE_CODE21":"7","STE_NAME21":"Northern Territory","AUS_CODE21":"AUS","AUS_NAME21":"Australia","AREASQKM21":11.0551,"LOCI_URI21":"http://linked.data.gov.au/dataset/asgsed3/SAL/70172","SHAPE_Leng":0.143815721329,"SHAPE_Area":0.000917851219067,"fill":"#4e79a7"},"geometry":{"type":"Point","coordinates":[134.235795,-12.057355000000001]}},{"type":"Feature","properties":{"SAL_CODE21":"70173","SAL_NAME21":"Manton (NT)","STE_CODE21":"7","STE_NAME21":"Northern Territory","AUS_CODE21":"AUS","AUS_NAME21":"Australia","AREASQKM21":83.7083,"LOCI_URI21":"http://linked.data.gov.au/dataset/asgsed3/SAL/70173","SHAPE_Leng":0.395736773844,"SHAPE_Area":0.00696957983549,"fill":"#bab0ab"},"geometry":{"type":"Point","coordinates":[131.18528500000002,-12.81275]}},{"type":"Feature","properties":{"SAL_CODE21":"70174","SAL_NAME21":"Maranunga","STE_CODE21":"7","STE_NAME21":"Northern Territory","AUS_CODE21":"AUS","AUS_NAME21":"Australia","AREASQKM21":5.2314,"LOCI_URI21":"http://linked.data.gov.au/dataset/asgsed3/SAL/70174","SHAPE_Leng":0.0856995212275,"SHAPE_Area":0.000437137941026,"fill":"#af7aa1"},"geometry":{"type":"Point","coordinates":[130.710485,-13.709825]}},{"type":"Feature","properties":{"SAL_CODE21":"70175","SAL_NAME21":"Margaret River (NT)","STE_CODE21":"7","STE_NAME21":"Northern Territory","AUS_CODE21":"AUS","AUS_NAME21":"Australia","AREASQKM21":1090.7966,"LOCI_URI21":"http://linked.data.gov.au/dataset/asgsed3/SAL/70175","SHAPE_Leng":1.6576121375,"SHAPE_Area":0.0909540942247,"fill":"#bab0ab"},"geometry":{"type":"Point","coordinates":[131.359475,-13.234385]}},{"type":"Feature","properties":{"SAL_CODE21":"70176","SAL_NAME21":"Marlow Lagoon","STE_CODE21":"7","STE_NAME21":"Northern Territory","AUS_CODE21":"AUS","AUS_NAME21":"Australia","AREASQKM21":4.9381,"LOCI_URI21":"http://linked.data.gov.au/dataset/asgsed3/SAL/70176","SHAPE_Leng":0.108809723045,"SHAPE_Area":0.000410635892743,"fill":"#ff9da7"},"geometry":{"type":"Point","coordinates":[130.956625,-12.496055]}},{"type":"Feature","properties":{"SAL_CODE21":"70177","SAL_NAME21":"Marrakai","STE_CODE21":"7","STE_NAME21":"Northern Territory","AUS_CODE21":"AUS","AUS_NAME21":"Australia","AREASQKM21":2206.9157,"LOCI_URI21":"http://linked.data.gov.au/dataset/asgsed3/SAL/70177","SHAPE_Leng":2.94868483723,"SHAPE_Area":0.183666021513,"fill":"#9c755f"},"geometry":{"type":"Point","coordinates":[131.44665500000002,-12.673210000000001]}},{"type":"Feature","properties":{"SAL_CODE21":"70178","SAL_NAME21":"Marrara","STE_CODE21":"7","STE_NAME21":"Northern Territory","AUS_CODE21":"AUS","AUS_NAME21":"Australia","AREASQKM21":3.0821,"LOCI_URI21":"http://linked.data.gov.au/dataset/asgsed3/SAL/70178","SHAPE_Leng":0.112562070543,"SHAPE_Area":0.000256235283862,"fill":"#e15759"},"geometry":{"type":"Point","coordinates":[130.89535,-12.403995]}},{"type":"Feature","properties":{"SAL_CODE21":"70179","SAL_NAME21":"Mataranka","STE_CODE21":"7","STE_NAME21":"Northern Territory","AUS_CODE21":"AUS","AUS_NAME21":"Australia","AREASQKM21":231.7036,"LOCI_URI21":"http://linked.data.gov.au/dataset/asgsed3/SAL/70179","SHAPE_Leng":0.804068443074,"SHAPE_Area":0.0194670686835,"fill":"#af7aa1"},"geometry":{"type":"Point","coordinates":[133.051165,-14.954895]}},{"type":"Feature","properties":{"SAL_CODE21":"70180","SAL_NAME21":"McArthur","STE_CODE21":"7","STE_NAME21":"Northern Territory","AUS_CODE21":"AUS","AUS_NAME21":"Australia","AREASQKM21":30843.9603,"LOCI_URI21":"http://linked.data.gov.au/dataset/asgsed3/SAL/70180","SHAPE_Leng":9.25768157285,"SHAPE_Area":2.60776751684,"fill":"#bab0ab"},"geometry":{"type":"Point","coordinates":[136.127855,-16.2046]}},{"type":"Feature","properties":{"SAL_CODE21":"70181","SAL_NAME21":"McMinns Lagoon","STE_CODE21":"7","STE_NAME21":"Northern Territory","AUS_CODE21":"AUS","AUS_NAME21":"Australia","AREASQKM21":13.41,"LOCI_URI21":"http://linked.data.gov.au/dataset/asgsed3/SAL/70181","SHAPE_Leng":0.151509507233,"SHAPE_Area":0.00111536465231,"fill":"#9c755f"},"geometry":{"type":"Point","coordinates":[131.06718999999998,-12.54715]}},{"type":"Feature","properties":{"SAL_CODE21":"70182","SAL_NAME21":"Mereenie","STE_CODE21":"7","STE_NAME21":"Northern Territory","AUS_CODE21":"AUS","AUS_NAME21":"Australia","AREASQKM21":4951.9531,"LOCI_URI21":"http://linked.data.gov.au/dataset/asgsed3/SAL/70182","SHAPE_Leng":2.83558895522,"SHAPE_Area":0.439073054157,"fill":"#9c755f"},"geometry":{"type":"Point","coordinates":[131.82551999999998,-23.894365]}},{"type":"Feature","properties":{"SAL_CODE21":"70183","SAL_NAME21":"Micket Creek","STE_CODE21":"7","STE_NAME21":"Northern Territory","AUS_CODE21":"AUS","AUS_NAME21":"Australia","AREASQKM21":13.2211,"LOCI_URI21":"http://linked.data.gov.au/dataset/asgsed3/SAL/70183","SHAPE_Leng":0.224279219579,"SHAPE_Area":0.00109898236748,"fill":"#ff9da7"},"geometry":{"type":"Point","coordinates":[130.952475,-12.376625]}},{"type":"Feature","properties":{"SAL_CODE21":"70184","SAL_NAME21":"Middle Point","STE_CODE21":"7","STE_NAME21":"Northern Territory","AUS_CODE21":"AUS","AUS_NAME21":"Australia","AREASQKM21":111.8391,"LOCI_URI21":"http://linked.data.gov.au/dataset/asgsed3/SAL/70184","SHAPE_Leng":0.457529358096,"SHAPE_Area":0.00930402445273,"fill":"#e15759"},"geometry":{"type":"Point","coordinates":[131.32668,-12.59895]}},{"type":"Feature","properties":{"SAL_CODE21":"70185","SAL_NAME21":"Milikapiti","STE_CODE21":"7","STE_NAME21":"Northern Territory","AUS_CODE21":"AUS","AUS_NAME21":"Australia","AREASQKM21":11.4786,"LOCI_URI21":"http://linked.data.gov.au/dataset/asgsed3/SAL/70185","SHAPE_Leng":0.148931444574,"SHAPE_Area":0.000950868786664,"fill":"#edc949"},"geometry":{"type":"Point","coordinates":[130.65775,-11.4217]}},{"type":"Feature","properties":{"SAL_CODE21":"70186","SAL_NAME21":"Milingimbi","STE_CODE21":"7","STE_NAME21":"Northern Territory","AUS_CODE21":"AUS","AUS_NAME21":"Australia","AREASQKM21":4.4443,"LOCI_URI21":"http://linked.data.gov.au/dataset/asgsed3/SAL/70186","SHAPE_Leng":0.134072904926,"SHAPE_Area":0.000369034137101,"fill":"#9c755f"},"geometry":{"type":"Point","coordinates":[134.90521,-12.099995]}},{"type":"Feature","properties":{"SAL_CODE21":"70187","SAL_NAME21":"Millner","STE_CODE21":"7","STE_NAME21":"Northern Territory","AUS_CODE21":"AUS","AUS_NAME21":"Australia","AREASQKM21":1.4677,"LOCI_URI21":"http://linked.data.gov.au/dataset/asgsed3/SAL/70187","SHAPE_Leng":0.0487907533414,"SHAPE_Area":0.000121964550401,"fill":"#f28e2c"},"geometry":{"type":"Point","coordinates":[130.864085,-12.391665]}},{"type":"Feature","properties":{"SAL_CODE21":"70188","SAL_NAME21":"Milyakburra","STE_CODE21":"7","STE_NAME21":"Northern Territory","AUS_CODE21":"AUS","AUS_NAME21":"Australia","AREASQKM21":5.176,"LOCI_URI21":"http://linked.data.gov.au/dataset/asgsed3/SAL/70188","SHAPE_Leng":0.0835742255804,"SHAPE_Area":0.000432627700915,"fill":"#76b7b2"},"geometry":{"type":"Point","coordinates":[136.20120500000002,-13.77839]}},{"type":"Feature","properties":{"SAL_CODE21":"70189","SAL_NAME21":"Miniyeri","STE_CODE21":"7","STE_NAME21":"Northern Territory","AUS_CODE21":"AUS","AUS_NAME21":"Australia","AREASQKM21":2.9072,"LOCI_URI21":"http://linked.data.gov.au/dataset/asgsed3/SAL/70189","SHAPE_Leng":0.0752693838123,"SHAPE_Area":0.000244549180416,"fill":"#af7aa1"},"geometry":{"type":"Point","coordinates":[134.078325,-15.227744999999999]}},{"type":"Feature","properties":{"SAL_CODE21":"70190","SAL_NAME21":"Minjilang","STE_CODE21":"7","STE_NAME21":"Northern Territory","AUS_CODE21":"AUS","AUS_NAME21":"Australia","AREASQKM21":11.4327,"LOCI_URI21":"http://linked.data.gov.au/dataset/asgsed3/SAL/70190","SHAPE_Leng":0.13505027803,"SHAPE_Area":0.000946151947508,"fill":"#76b7b2"},"geometry":{"type":"Point","coordinates":[132.55973,-11.149215]}},{"type":"Feature","properties":{"SAL_CODE21":"70191","SAL_NAME21":"Mitchell (NT)","STE_CODE21":"7","STE_NAME21":"Northern Territory","AUS_CODE21":"AUS","AUS_NAME21":"Australia","AREASQKM21":7.8441,"LOCI_URI21":"http://linked.data.gov.au/dataset/asgsed3/SAL/70191","SHAPE_Leng":0.150395354829,"SHAPE_Area":0.000652395082005,"fill":"#edc949"},"geometry":{"type":"Point","coordinates":[130.99565,-12.524415000000001]}},{"type":"Feature","properties":{"SAL_CODE21":"70192","SAL_NAME21":"Moil","STE_CODE21":"7","STE_NAME21":"Northern Territory","AUS_CODE21":"AUS","AUS_NAME21":"Australia","AREASQKM21":1.0424,"LOCI_URI21":"http://linked.data.gov.au/dataset/asgsed3/SAL/70192","SHAPE_Leng":0.0394146490822,"SHAPE_Area":0.0000866536897412,"fill":"#4e79a7"},"geometry":{"type":"Point","coordinates":[130.881695,-12.38832]}},{"type":"Feature","properties":{"SAL_CODE21":"70193","SAL_NAME21":"Moulden","STE_CODE21":"7","STE_NAME21":"Northern Territory","AUS_CODE21":"AUS","AUS_NAME21":"Australia","AREASQKM21":1.7504,"LOCI_URI21":"http://linked.data.gov.au/dataset/asgsed3/SAL/70193","SHAPE_Leng":0.055975569441,"SHAPE_Area":0.000145567780729,"fill":"#e15759"},"geometry":{"type":"Point","coordinates":[130.97441,-12.505469999999999]}},{"type":"Feature","properties":{"SAL_CODE21":"70194","SAL_NAME21":"Mount Bundey","STE_CODE21":"7","STE_NAME21":"Northern Territory","AUS_CODE21":"AUS","AUS_NAME21":"Australia","AREASQKM21":2505.6169,"LOCI_URI21":"http://linked.data.gov.au/dataset/asgsed3/SAL/70194","SHAPE_Leng":2.38429811222,"SHAPE_Area":0.208790295023,"fill":"#af7aa1"},"geometry":{"type":"Point","coordinates":[131.7192,-13.03476]}},{"type":"Feature","properties":{"SAL_CODE21":"70195","SAL_NAME21":"Mount Johns","STE_CODE21":"7","STE_NAME21":"Northern Territory","AUS_CODE21":"AUS","AUS_NAME21":"Australia","AREASQKM21":14.8267,"LOCI_URI21":"http://linked.data.gov.au/dataset/asgsed3/SAL/70195","SHAPE_Leng":0.187434403385,"SHAPE_Area":0.00131280756183,"fill":"#76b7b2"},"geometry":{"type":"Point","coordinates":[133.904165,-23.72305]}},{"type":"Feature","properties":{"SAL_CODE21":"70196","SAL_NAME21":"Mount Liebig","STE_CODE21":"7","STE_NAME21":"Northern Territory","AUS_CODE21":"AUS","AUS_NAME21":"Australia","AREASQKM21":6.9433,"LOCI_URI21":"http://linked.data.gov.au/dataset/asgsed3/SAL/70196","SHAPE_Leng":0.130899166951,"SHAPE_Area":0.000612689867565,"fill":"#ff9da7"},"geometry":{"type":"Point","coordinates":[131.2661,-23.257824999999997]}},{"type":"Feature","properties":{"SAL_CODE21":"70197","SAL_NAME21":"Mount Zeil","STE_CODE21":"7","STE_NAME21":"Northern Territory","AUS_CODE21":"AUS","AUS_NAME21":"Australia","AREASQKM21":6692.8324,"LOCI_URI21":"http://linked.data.gov.au/dataset/asgsed3/SAL/70197","SHAPE_Leng":3.58805219881,"SHAPE_Area":0.590819240401,"fill":"#f28e2c"},"geometry":{"type":"Point","coordinates":[132.36218000000002,-23.282044999999997]}},{"type":"Feature","properties":{"SAL_CODE21":"70198","SAL_NAME21":"Muirhead","STE_CODE21":"7","STE_NAME21":"Northern Territory","AUS_CODE21":"AUS","AUS_NAME21":"Australia","AREASQKM21":1.7106,"LOCI_URI21":"http://linked.data.gov.au/dataset/asgsed3/SAL/70198","SHAPE_Leng":0.0480431143619,"SHAPE_Area":0.000142182147366,"fill":"#e15759"},"geometry":{"type":"Point","coordinates":[130.895555,-12.358355]}},{"type":"Feature","properties":{"SAL_CODE21":"70199","SAL_NAME21":"Murrumujuk","STE_CODE21":"7","STE_NAME21":"Northern Territory","AUS_CODE21":"AUS","AUS_NAME21":"Australia","AREASQKM21":67.4652,"LOCI_URI21":"http://linked.data.gov.au/dataset/asgsed3/SAL/70199","SHAPE_Leng":0.505375556125,"SHAPE_Area":0.00560577261002,"fill":"#af7aa1"},"geometry":{"type":"Point","coordinates":[131.08095500000002,-12.271585]}},{"type":"Feature","properties":{"SAL_CODE21":"70200","SAL_NAME21":"Mutitjulu","STE_CODE21":"7","STE_NAME21":"Northern Territory","AUS_CODE21":"AUS","AUS_NAME21":"Australia","AREASQKM21":2.5165,"LOCI_URI21":"http://linked.data.gov.au/dataset/asgsed3/SAL/70200","SHAPE_Leng":0.0611080207363,"SHAPE_Area":0.000225669586963,"fill":"#59a14f"},"geometry":{"type":"Point","coordinates":[131.06736999999998,-25.35068]}},{"type":"Feature","properties":{"SAL_CODE21":"70201","SAL_NAME21":"Nakara","STE_CODE21":"7","STE_NAME21":"Northern Territory","AUS_CODE21":"AUS","AUS_NAME21":"Australia","AREASQKM21":0.8426,"LOCI_URI21":"http://linked.data.gov.au/dataset/asgsed3/SAL/70201","SHAPE_Leng":0.0349711369045,"SHAPE_Area":0.0000700327884337,"fill":"#ff9da7"},"geometry":{"type":"Point","coordinates":[130.877835,-12.370665]}},{"type":"Feature","properties":{"SAL_CODE21":"70202","SAL_NAME21":"Namatjira","STE_CODE21":"7","STE_NAME21":"Northern Territory","AUS_CODE21":"AUS","AUS_NAME21":"Australia","AREASQKM21":4325.736,"LOCI_URI21":"http://linked.data.gov.au/dataset/asgsed3/SAL/70202","SHAPE_Leng":3.16761918171,"SHAPE_Area":0.383668641832,"fill":"#4e79a7"},"geometry":{"type":"Point","coordinates":[132.730595,-23.992645]}},{"type":"Feature","properties":{"SAL_CODE21":"70203","SAL_NAME21":"Nauiyu","STE_CODE21":"7","STE_NAME21":"Northern Territory","AUS_CODE21":"AUS","AUS_NAME21":"Australia","AREASQKM21":42.7231,"LOCI_URI21":"http://linked.data.gov.au/dataset/asgsed3/SAL/70203","SHAPE_Leng":0.30308547342,"SHAPE_Area":0.0035701590764,"fill":"#edc949"},"geometry":{"type":"Point","coordinates":[130.72135,-13.72039]}},{"type":"Feature","properties":{"SAL_CODE21":"70204","SAL_NAME21":"Nemarluk","STE_CODE21":"7","STE_NAME21":"Northern Territory","AUS_CODE21":"AUS","AUS_NAME21":"Australia","AREASQKM21":13838.0918,"LOCI_URI21":"http://linked.data.gov.au/dataset/asgsed3/SAL/70204","SHAPE_Leng":8.65753444585,"SHAPE_Area":1.15909695891,"fill":"#f28e2c"},"geometry":{"type":"Point","coordinates":[130.502095,-14.087015000000001]}},{"type":"Feature","properties":{"SAL_CODE21":"70205","SAL_NAME21":"Newcastle Waters","STE_CODE21":"7","STE_NAME21":"Northern Territory","AUS_CODE21":"AUS","AUS_NAME21":"Australia","AREASQKM21":4.3571,"LOCI_URI21":"http://linked.data.gov.au/dataset/asgsed3/SAL/70205","SHAPE_Leng":0.0780469739196,"SHAPE_Area":0.000370456939541,"fill":"#e15759"},"geometry":{"type":"Point","coordinates":[133.402355,-17.36961]}},{"type":"Feature","properties":{"SAL_CODE21":"70206","SAL_NAME21":"Nganmarriyanga","STE_CODE21":"7","STE_NAME21":"Northern Territory","AUS_CODE21":"AUS","AUS_NAME21":"Australia","AREASQKM21":46.3918,"LOCI_URI21":"http://linked.data.gov.au/dataset/asgsed3/SAL/70206","SHAPE_Leng":0.274071397052,"SHAPE_Area":0.00388772758276,"fill":"#76b7b2"},"geometry":{"type":"Point","coordinates":[129.887355,-14.329519999999999]}},{"type":"Feature","properties":{"SAL_CODE21":"70207","SAL_NAME21":"Ngukurr","STE_CODE21":"7","STE_NAME21":"Northern Territory","AUS_CODE21":"AUS","AUS_NAME21":"Australia","AREASQKM21":12.0357,"LOCI_URI21":"http://linked.data.gov.au/dataset/asgsed3/SAL/70207","SHAPE_Leng":0.132285926411,"SHAPE_Area":0.00101015787965,"fill":"#9c755f"},"geometry":{"type":"Point","coordinates":[134.743245,-14.733145]}},{"type":"Feature","properties":{"SAL_CODE21":"70208","SAL_NAME21":"Nhulunbuy","STE_CODE21":"7","STE_NAME21":"Northern Territory","AUS_CODE21":"AUS","AUS_NAME21":"Australia","AREASQKM21":65.5553,"LOCI_URI21":"http://linked.data.gov.au/dataset/asgsed3/SAL/70208","SHAPE_Leng":0.586868084046,"SHAPE_Area":0.00544552923453,"fill":"#e15759"},"geometry":{"type":"Point","coordinates":[136.76702999999998,-12.20385]}},{"type":"Feature","properties":{"SAL_CODE21":"70209","SAL_NAME21":"Nicholson (NT)","STE_CODE21":"7","STE_NAME21":"Northern Territory","AUS_CODE21":"AUS","AUS_NAME21":"Australia","AREASQKM21":26670.808,"LOCI_URI21":"http://linked.data.gov.au/dataset/asgsed3/SAL/70209","SHAPE_Leng":7.10882457437,"SHAPE_Area":2.28322371677,"fill":"#bab0ab"},"geometry":{"type":"Point","coordinates":[137.218575,-18.50384]}},{"type":"Feature","properties":{"SAL_CODE21":"70210","SAL_NAME21":"Nightcliff","STE_CODE21":"7","STE_NAME21":"Northern Territory","AUS_CODE21":"AUS","AUS_NAME21":"Australia","AREASQKM21":1.4512,"LOCI_URI21":"http://linked.data.gov.au/dataset/asgsed3/SAL/70210","SHAPE_Leng":0.0486547651923,"SHAPE_Area":0.000120623160732,"fill":"#ff9da7"},"geometry":{"type":"Point","coordinates":[130.848585,-12.382765]}},{"type":"Feature","properties":{"SAL_CODE21":"70211","SAL_NAME21":"Nitmiluk","STE_CODE21":"7","STE_NAME21":"Northern Territory","AUS_CODE21":"AUS","AUS_NAME21":"Australia","AREASQKM21":6557.0999,"LOCI_URI21":"http://linked.data.gov.au/dataset/asgsed3/SAL/70211","SHAPE_Leng":4.02893832519,"SHAPE_Area":0.54886647508,"fill":"#ff9da7"},"geometry":{"type":"Point","coordinates":[132.59427,-14.15572]}},{"type":"Feature","properties":{"SAL_CODE21":"70212","SAL_NAME21":"Noonamah","STE_CODE21":"7","STE_NAME21":"Northern Territory","AUS_CODE21":"AUS","AUS_NAME21":"Australia","AREASQKM21":34.4074,"LOCI_URI21":"http://linked.data.gov.au/dataset/asgsed3/SAL/70212","SHAPE_Leng":0.233399039424,"SHAPE_Area":0.00286290171136,"fill":"#76b7b2"},"geometry":{"type":"Point","coordinates":[131.09156000000002,-12.644214999999999]}},{"type":"Feature","properties":{"SAL_CODE21":"70213","SAL_NAME21":"Numbulwar","STE_CODE21":"7","STE_NAME21":"Northern Territory","AUS_CODE21":"AUS","AUS_NAME21":"Australia","AREASQKM21":5.2003,"LOCI_URI21":"http://linked.data.gov.au/dataset/asgsed3/SAL/70213","SHAPE_Leng":0.129165476091,"SHAPE_Area":0.000435579626742,"fill":"#4e79a7"},"geometry":{"type":"Point","coordinates":[135.72763,-14.272269999999999]}},{"type":"Feature","properties":{"SAL_CODE21":"70214","SAL_NAME21":"Numburindi","STE_CODE21":"7","STE_NAME21":"Northern Territory","AUS_CODE21":"AUS","AUS_NAME21":"Australia","AREASQKM21":4413.347,"LOCI_URI21":"http://linked.data.gov.au/dataset/asgsed3/SAL/70214","SHAPE_Leng":4.46052579698,"SHAPE_Area":0.369160209775,"fill":"#edc949"},"geometry":{"type":"Point","coordinates":[135.79128,-14.026795]}},{"type":"Feature","properties":{"SAL_CODE21":"70215","SAL_NAME21":"Nyirripi","STE_CODE21":"7","STE_NAME21":"Northern Territory","AUS_CODE21":"AUS","AUS_NAME21":"Australia","AREASQKM21":8.2144,"LOCI_URI21":"http://linked.data.gov.au/dataset/asgsed3/SAL/70215","SHAPE_Leng":0.129624330282,"SHAPE_Area":0.000721672707313,"fill":"#76b7b2"},"geometry":{"type":"Point","coordinates":[130.55833,-22.646884999999997]}},{"type":"Feature","properties":{"SAL_CODE21":"70216","SAL_NAME21":"Palmerston City","STE_CODE21":"7","STE_NAME21":"Northern Territory","AUS_CODE21":"AUS","AUS_NAME21":"Australia","AREASQKM21":0.6091,"LOCI_URI21":"http://linked.data.gov.au/dataset/asgsed3/SAL/70216","SHAPE_Leng":0.0364908304809,"SHAPE_Area":0.0000506459605276,"fill":"#9c755f"},"geometry":{"type":"Point","coordinates":[130.9853,-12.478545]}},{"type":"Feature","properties":{"SAL_CODE21":"70217","SAL_NAME21":"Pamayu","STE_CODE21":"7","STE_NAME21":"Northern Territory","AUS_CODE21":"AUS","AUS_NAME21":"Australia","AREASQKM21":33921.2378,"LOCI_URI21":"http://linked.data.gov.au/dataset/asgsed3/SAL/70217","SHAPE_Leng":8.72728479929,"SHAPE_Area":2.88784367124,"fill":"#af7aa1"},"geometry":{"type":"Point","coordinates":[134.142765,-17.60133]}},{"type":"Feature","properties":{"SAL_CODE21":"70218","SAL_NAME21":"Papunya","STE_CODE21":"7","STE_NAME21":"Northern Territory","AUS_CODE21":"AUS","AUS_NAME21":"Australia","AREASQKM21":4.739,"LOCI_URI21":"http://linked.data.gov.au/dataset/asgsed3/SAL/70218","SHAPE_Leng":0.0821872267557,"SHAPE_Area":0.000418018037288,"fill":"#bab0ab"},"geometry":{"type":"Point","coordinates":[131.91225500000002,-23.202689999999997]}},{"type":"Feature","properties":{"SAL_CODE21":"70219","SAL_NAME21":"Parap","STE_CODE21":"7","STE_NAME21":"Northern Territory","AUS_CODE21":"AUS","AUS_NAME21":"Australia","AREASQKM21":1.1022,"LOCI_URI21":"http://linked.data.gov.au/dataset/asgsed3/SAL/70219","SHAPE_Leng":0.0596765950672,"SHAPE_Area":0.000091635226146,"fill":"#e15759"},"geometry":{"type":"Point","coordinates":[130.846155,-12.434155]}},{"type":"Feature","properties":{"SAL_CODE21":"70220","SAL_NAME21":"Pellew Islands","STE_CODE21":"7","STE_NAME21":"Northern Territory","AUS_CODE21":"AUS","AUS_NAME21":"Australia","AREASQKM21":661.978,"LOCI_URI21":"http://linked.data.gov.au/dataset/asgsed3/SAL/70220","SHAPE_Leng":4.44262980342,"SHAPE_Area":0.0558019951634,"fill":"#76b7b2"},"geometry":{"type":"Point","coordinates":[136.80064,-15.679345]}},{"type":"Feature","properties":{"SAL_CODE21":"70221","SAL_NAME21":"Peppimenarti","STE_CODE21":"7","STE_NAME21":"Northern Territory","AUS_CODE21":"AUS","AUS_NAME21":"Australia","AREASQKM21":5.6576,"LOCI_URI21":"http://linked.data.gov.au/dataset/asgsed3/SAL/70221","SHAPE_Leng":0.108125701727,"SHAPE_Area":0.000473629454056,"fill":"#bab0ab"},"geometry":{"type":"Point","coordinates":[130.08405499999998,-14.147845]}},{"type":"Feature","properties":{"SAL_CODE21":"70222","SAL_NAME21":"Petermann","STE_CODE21":"7","STE_NAME21":"Northern Territory","AUS_CODE21":"AUS","AUS_NAME21":"Australia","AREASQKM21":69668.3334,"LOCI_URI21":"http://linked.data.gov.au/dataset/asgsed3/SAL/70222","SHAPE_Leng":11.7333118891,"SHAPE_Area":6.23209331062,"fill":"#f28e2c"},"geometry":{"type":"Point","coordinates":[130.82502,-25.066879999999998]}},{"type":"Feature","properties":{"SAL_CODE21":"70223","SAL_NAME21":"Pigeon Hole","STE_CODE21":"7","STE_NAME21":"Northern Territory","AUS_CODE21":"AUS","AUS_NAME21":"Australia","AREASQKM21":37.3093,"LOCI_URI21":"http://linked.data.gov.au/dataset/asgsed3/SAL/70223","SHAPE_Leng":0.444978171246,"SHAPE_Area":0.00316255012006,"fill":"#ff9da7"},"geometry":{"type":"Point","coordinates":[131.215175,-16.78955]}},{"type":"Feature","properties":{"SAL_CODE21":"70224","SAL_NAME21":"Pine Creek (NT)","STE_CODE21":"7","STE_NAME21":"Northern Territory","AUS_CODE21":"AUS","AUS_NAME21":"Australia","AREASQKM21":402.0523,"LOCI_URI21":"http://linked.data.gov.au/dataset/asgsed3/SAL/70224","SHAPE_Leng":0.733330945032,"SHAPE_Area":0.0336108922454,"fill":"#bab0ab"},"geometry":{"type":"Point","coordinates":[131.82619499999998,-13.82356]}},{"type":"Feature","properties":{"SAL_CODE21":"70225","SAL_NAME21":"Pinelands (NT)","STE_CODE21":"7","STE_NAME21":"Northern Territory","AUS_CODE21":"AUS","AUS_NAME21":"Australia","AREASQKM21":3.6419,"LOCI_URI21":"http://linked.data.gov.au/dataset/asgsed3/SAL/70225","SHAPE_Leng":0.0883078747863,"SHAPE_Area":0.000302822770348,"fill":"#59a14f"},"geometry":{"type":"Point","coordinates":[130.962165,-12.45664]}},{"type":"Feature","properties":{"SAL_CODE21":"70226","SAL_NAME21":"Pirlangimpi","STE_CODE21":"7","STE_NAME21":"Northern Territory","AUS_CODE21":"AUS","AUS_NAME21":"Australia","AREASQKM21":11.8509,"LOCI_URI21":"http://linked.data.gov.au/dataset/asgsed3/SAL/70226","SHAPE_Leng":0.17559304435,"SHAPE_Area":0.000981613725911,"fill":"#59a14f"},"geometry":{"type":"Point","coordinates":[130.42417999999998,-11.39183]}},{"type":"Feature","properties":{"SAL_CODE21":"70227","SAL_NAME21":"Point Stuart","STE_CODE21":"7","STE_NAME21":"Northern Territory","AUS_CODE21":"AUS","AUS_NAME21":"Australia","AREASQKM21":2165.6919,"LOCI_URI21":"http://linked.data.gov.au/dataset/asgsed3/SAL/70227","SHAPE_Leng":2.40093355608,"SHAPE_Area":0.180125875514,"fill":"#ff9da7"},"geometry":{"type":"Point","coordinates":[131.87260500000002,-12.560884999999999]}},{"type":"Feature","properties":{"SAL_CODE21":"70228","SAL_NAME21":"Rakula","STE_CODE21":"7","STE_NAME21":"Northern Territory","AUS_CODE21":"AUS","AUS_NAME21":"Australia","AREASQKM21":2844.9865,"LOCI_URI21":"http://linked.data.gov.au/dataset/asgsed3/SAL/70228","SHAPE_Leng":3.17515836925,"SHAPE_Area":0.23709851078,"fill":"#af7aa1"},"geometry":{"type":"Point","coordinates":[130.453,-13.02795]}},{"type":"Feature","properties":{"SAL_CODE21":"70229","SAL_NAME21":"Ramingining","STE_CODE21":"7","STE_NAME21":"Northern Territory","AUS_CODE21":"AUS","AUS_NAME21":"Australia","AREASQKM21":28.3634,"LOCI_URI21":"http://linked.data.gov.au/dataset/asgsed3/SAL/70229","SHAPE_Leng":0.284379132836,"SHAPE_Area":0.0023573027336,"fill":"#ff9da7"},"geometry":{"type":"Point","coordinates":[134.92380500000002,-12.330964999999999]}},{"type":"Feature","properties":{"SAL_CODE21":"70230","SAL_NAME21":"Ranken","STE_CODE21":"7","STE_NAME21":"Northern Territory","AUS_CODE21":"AUS","AUS_NAME21":"Australia","AREASQKM21":19843.4649,"LOCI_URI21":"http://linked.data.gov.au/dataset/asgsed3/SAL/70230","SHAPE_Leng":6.33599593744,"SHAPE_Area":1.71299012924,"fill":"#ff9da7"},"geometry":{"type":"Point","coordinates":[137.218895,-20.08952]}},{"type":"Feature","properties":{"SAL_CODE21":"70231","SAL_NAME21":"Rapid Creek","STE_CODE21":"7","STE_NAME21":"Northern Territory","AUS_CODE21":"AUS","AUS_NAME21":"Australia","AREASQKM21":1.9176,"LOCI_URI21":"http://linked.data.gov.au/dataset/asgsed3/SAL/70231","SHAPE_Leng":0.0606144800796,"SHAPE_Area":0.000159424490672,"fill":"#af7aa1"},"geometry":{"type":"Point","coordinates":[130.85857,-12.38114]}},{"type":"Feature","properties":{"SAL_CODE21":"70232","SAL_NAME21":"Robin Falls","STE_CODE21":"7","STE_NAME21":"Northern Territory","AUS_CODE21":"AUS","AUS_NAME21":"Australia","AREASQKM21":549.4917,"LOCI_URI21":"http://linked.data.gov.au/dataset/asgsed3/SAL/70232","SHAPE_Leng":0.901370948843,"SHAPE_Area":0.0458547266066,"fill":"#4e79a7"},"geometry":{"type":"Point","coordinates":[131.128735,-13.367245]}},{"type":"Feature","properties":{"SAL_CODE21":"70233","SAL_NAME21":"Robinson River","STE_CODE21":"7","STE_NAME21":"Northern Territory","AUS_CODE21":"AUS","AUS_NAME21":"Australia","AREASQKM21":1.1406,"LOCI_URI21":"http://linked.data.gov.au/dataset/asgsed3/SAL/70233","SHAPE_Leng":0.0434619630856,"SHAPE_Area":0.0000966650633871,"fill":"#bab0ab"},"geometry":{"type":"Point","coordinates":[136.98316,-16.759435]}},{"type":"Feature","properties":{"SAL_CODE21":"70234","SAL_NAME21":"Rosebery (NT)","STE_CODE21":"7","STE_NAME21":"Northern Territory","AUS_CODE21":"AUS","AUS_NAME21":"Australia","AREASQKM21":1.8889,"LOCI_URI21":"http://linked.data.gov.au/dataset/asgsed3/SAL/70234","SHAPE_Leng":0.0500460852962,"SHAPE_Area":0.000157047915825,"fill":"#ff9da7"},"geometry":{"type":"Point","coordinates":[130.99125,-12.508155]}},{"type":"Feature","properties":{"SAL_CODE21":"70235","SAL_NAME21":"Ross (NT)","STE_CODE21":"7","STE_NAME21":"Northern Territory","AUS_CODE21":"AUS","AUS_NAME21":"Australia","AREASQKM21":18.649,"LOCI_URI21":"http://linked.data.gov.au/dataset/asgsed3/SAL/70235","SHAPE_Leng":0.202526387325,"SHAPE_Area":0.00165161502122,"fill":"#ff9da7"},"geometry":{"type":"Point","coordinates":[133.90161999999998,-23.74559]}},{"type":"Feature","properties":{"SAL_CODE21":"70236","SAL_NAME21":"Rum Jungle","STE_CODE21":"7","STE_NAME21":"Northern Territory","AUS_CODE21":"AUS","AUS_NAME21":"Australia","AREASQKM21":137.564,"LOCI_URI21":"http://linked.data.gov.au/dataset/asgsed3/SAL/70236","SHAPE_Leng":0.5824188289,"SHAPE_Area":0.0114620038707,"fill":"#76b7b2"},"geometry":{"type":"Point","coordinates":[131.0237,-12.9947]}},{"type":"Feature","properties":{"SAL_CODE21":"70237","SAL_NAME21":"Sadadeen","STE_CODE21":"7","STE_NAME21":"Northern Territory","AUS_CODE21":"AUS","AUS_NAME21":"Australia","AREASQKM21":4.6528,"LOCI_URI21":"http://linked.data.gov.au/dataset/asgsed3/SAL/70237","SHAPE_Leng":0.0972080048023,"SHAPE_Area":0.000411919234985,"fill":"#af7aa1"},"geometry":{"type":"Point","coordinates":[133.89994000000002,-23.70313]}},{"type":"Feature","properties":{"SAL_CODE21":"70238","SAL_NAME21":"Sandover","STE_CODE21":"7","STE_NAME21":"Northern Territory","AUS_CODE21":"AUS","AUS_NAME21":"Australia","AREASQKM21":18880.2795,"LOCI_URI21":"http://linked.data.gov.au/dataset/asgsed3/SAL/70238","SHAPE_Leng":6.53886819749,"SHAPE_Area":1.65109561733,"fill":"#f28e2c"},"geometry":{"type":"Point","coordinates":[135.51058999999998,-21.98243]}},{"type":"Feature","properties":{"SAL_CODE21":"70239","SAL_NAME21":"Santa Teresa","STE_CODE21":"7","STE_NAME21":"Northern Territory","AUS_CODE21":"AUS","AUS_NAME21":"Australia","AREASQKM21":1247.1447,"LOCI_URI21":"http://linked.data.gov.au/dataset/asgsed3/SAL/70239","SHAPE_Leng":1.43891282624,"SHAPE_Area":0.110668977016,"fill":"#4e79a7"},"geometry":{"type":"Point","coordinates":[134.453625,-23.991995000000003]}},{"type":"Feature","properties":{"SAL_CODE21":"70240","SAL_NAME21":"Shoal Bay (NT)","STE_CODE21":"7","STE_NAME21":"Northern Territory","AUS_CODE21":"AUS","AUS_NAME21":"Australia","AREASQKM21":205.7172,"LOCI_URI21":"http://linked.data.gov.au/dataset/asgsed3/SAL/70240","SHAPE_Leng":1.11130205838,"SHAPE_Area":0.0170993286189,"fill":"#76b7b2"},"geometry":{"type":"Point","coordinates":[131.04753499999998,-12.36585]}},{"type":"Feature","properties":{"SAL_CODE21":"70241","SAL_NAME21":"Simpson (NT)","STE_CODE21":"7","STE_NAME21":"Northern Territory","AUS_CODE21":"AUS","AUS_NAME21":"Australia","AREASQKM21":50096.6088,"LOCI_URI21":"http://linked.data.gov.au/dataset/asgsed3/SAL/70241","SHAPE_Leng":9.42087828932,"SHAPE_Area":4.48066475498,"fill":"#edc949"},"geometry":{"type":"Point","coordinates":[136.700175,-24.934375]}},{"type":"Feature","properties":{"SAL_CODE21":"70242","SAL_NAME21":"Southport (NT)","STE_CODE21":"7","STE_NAME21":"Northern Territory","AUS_CODE21":"AUS","AUS_NAME21":"Australia","AREASQKM21":4.9274,"LOCI_URI21":"http://linked.data.gov.au/dataset/asgsed3/SAL/70242","SHAPE_Leng":0.107817285564,"SHAPE_Area":0.000410131131146,"fill":"#ff9da7"},"geometry":{"type":"Point","coordinates":[130.95442,-12.73002]}},{"type":"Feature","properties":{"SAL_CODE21":"70243","SAL_NAME21":"Stapleton","STE_CODE21":"7","STE_NAME21":"Northern Territory","AUS_CODE21":"AUS","AUS_NAME21":"Australia","AREASQKM21":103.6685,"LOCI_URI21":"http://linked.data.gov.au/dataset/asgsed3/SAL/70243","SHAPE_Leng":0.53651395873,"SHAPE_Area":0.008644187249,"fill":"#bab0ab"},"geometry":{"type":"Point","coordinates":[131.025845,-13.192]}},{"type":"Feature","properties":{"SAL_CODE21":"70244","SAL_NAME21":"Stuart (NT)","STE_CODE21":"7","STE_NAME21":"Northern Territory","AUS_CODE21":"AUS","AUS_NAME21":"Australia","AREASQKM21":8.2291,"LOCI_URI21":"http://linked.data.gov.au/dataset/asgsed3/SAL/70244","SHAPE_Leng":0.127231719431,"SHAPE_Area":0.000728409295957,"fill":"#bab0ab"},"geometry":{"type":"Point","coordinates":[133.878785,-23.676425000000002]}},