{"type":"FeatureCollection","features":[{"type":"Feature","properties":{"SAL_CODE21":"30001","SAL_NAME21":"Abbeywood","STE_CODE21":"3","STE_NAME21":"Queensland","AUS_CODE21":"AUS","AUS_NAME21":"Australia","AREASQKM21":35.0348,"LOCI_URI21":"http://linked.data.gov.au/dataset/asgsed3/SAL/30001","SHAPE_Leng":0.292642856692,"SHAPE_Area":0.00316139523859,"fill":"#bab0ab"},"geometry":{"type":"Point","coordinates":[151.643465,-26.108800000000002]}},{"type":"Feature","properties":{"SAL_CODE21":"30002","SAL_NAME21":"Abbotsford (Qld)","STE_CODE21":"3","STE_NAME21":"Queensland","AUS_CODE21":"AUS","AUS_NAME21":"Australia","AREASQKM21":85.7638,"LOCI_URI21":"http://linked.data.gov.au/dataset/asgsed3/SAL/30002","SHAPE_Leng":0.397828078434,"SHAPE_Area":0.00765917868479,"fill":"#bab0ab"},"geometry":{"type":"Point","coordinates":[152.00445000000002,-24.831935]}},{"type":"Feature","properties":{"SAL_CODE21":"30003","SAL_NAME21":"Abercorn","STE_CODE21":"3","STE_NAME21":"Queensland","AUS_CODE21":"AUS","AUS_NAME21":"Australia","AREASQKM21":94.2732,"LOCI_URI21":"http://linked.data.gov.au/dataset/asgsed3/SAL/30003","SHAPE_Leng":0.481411426588,"SHAPE_Area":0.00843970604873,"fill":"#f28e2c"},"geometry":{"type":"Point","coordinates":[151.14560999999998,-25.13809]}},{"type":"Feature","properties":{"SAL_CODE21":"30004","SAL_NAME21":"Abergowrie","STE_CODE21":"3","STE_NAME21":"Queensland","AUS_CODE21":"AUS","AUS_NAME21":"Australia","AREASQKM21":306.2652,"LOCI_URI21":"http://linked.data.gov.au/dataset/asgsed3/SAL/30004","SHAPE_Leng":1.02033012034,"SHAPE_Area":0.0261925427587,"fill":"#bab0ab"},"geometry":{"type":"Point","coordinates":[145.91969,-18.438885]}},{"type":"Feature","properties":{"SAL_CODE21":"30005","SAL_NAME21":"Abingdon Downs","STE_CODE21":"3","STE_NAME21":"Queensland","AUS_CODE21":"AUS","AUS_NAME21":"Australia","AREASQKM21":5052.0282,"LOCI_URI21":"http://linked.data.gov.au/dataset/asgsed3/SAL/30005","SHAPE_Leng":3.80866789651,"SHAPE_Area":0.430494252474,"fill":"#59a14f"},"geometry":{"type":"Point","coordinates":[143.470605,-17.811729999999997]}},{"type":"Feature","properties":{"SAL_CODE21":"30006","SAL_NAME21":"Abington (Qld)","STE_CODE21":"3","STE_NAME21":"Queensland","AUS_CODE21":"AUS","AUS_NAME21":"Australia","AREASQKM21":19.5648,"LOCI_URI21":"http://linked.data.gov.au/dataset/asgsed3/SAL/30006","SHAPE_Leng":0.24877839477,"SHAPE_Area":0.0017525250674,"fill":"#ff9da7"},"geometry":{"type":"Point","coordinates":[152.348805,-25.209495]}},{"type":"Feature","properties":{"SAL_CODE21":"30007","SAL_NAME21":"Acacia Ridge","STE_CODE21":"3","STE_NAME21":"Queensland","AUS_CODE21":"AUS","AUS_NAME21":"Australia","AREASQKM21":8.688,"LOCI_URI21":"http://linked.data.gov.au/dataset/asgsed3/SAL/30007","SHAPE_Leng":0.173890584042,"SHAPE_Area":0.000794023903717,"fill":"#bab0ab"},"geometry":{"type":"Point","coordinates":[153.02087,-27.58418]}},{"type":"Feature","properties":{"SAL_CODE21":"30008","SAL_NAME21":"Acland","STE_CODE21":"3","STE_NAME21":"Queensland","AUS_CODE21":"AUS","AUS_NAME21":"Australia","AREASQKM21":38.1793,"LOCI_URI21":"http://linked.data.gov.au/dataset/asgsed3/SAL/30008","SHAPE_Leng":0.263753585635,"SHAPE_Area":0.00348109713484,"fill":"#f28e2c"},"geometry":{"type":"Point","coordinates":[151.68414,-27.314104999999998]}},{"type":"Feature","properties":{"SAL_CODE21":"30009","SAL_NAME21":"Adare","STE_CODE21":"3","STE_NAME21":"Queensland","AUS_CODE21":"AUS","AUS_NAME21":"Australia","AREASQKM21":39.0493,"LOCI_URI21":"http://linked.data.gov.au/dataset/asgsed3/SAL/30009","SHAPE_Leng":0.323403726501,"SHAPE_Area":0.00356673691627,"fill":"#ff9da7"},"geometry":{"type":"Point","coordinates":[152.296275,-27.510219999999997]}},{"type":"Feature","properties":{"SAL_CODE21":"30010","SAL_NAME21":"Adavale","STE_CODE21":"3","STE_NAME21":"Queensland","AUS_CODE21":"AUS","AUS_NAME21":"Australia","AREASQKM21":21354.7571,"LOCI_URI21":"http://linked.data.gov.au/dataset/asgsed3/SAL/30010","SHAPE_Leng":8.46143395216,"SHAPE_Area":1.92423496975,"fill":"#ff9da7"},"geometry":{"type":"Point","coordinates":[144.71973,-25.916829999999997]}},{"type":"Feature","properties":{"SAL_CODE21":"30011","SAL_NAME21":"Adelaide Park","STE_CODE21":"3","STE_NAME21":"Queensland","AUS_CODE21":"AUS","AUS_NAME21":"Australia","AREASQKM21":24.1387,"LOCI_URI21":"http://linked.data.gov.au/dataset/asgsed3/SAL/30011","SHAPE_Leng":0.230338954782,"SHAPE_Area":0.00212754446712,"fill":"#76b7b2"},"geometry":{"type":"Point","coordinates":[150.6963,-23.096725]}},{"type":"Feature","properties":{"SAL_CODE21":"30012","SAL_NAME21":"Advancetown","STE_CODE21":"3","STE_NAME21":"Queensland","AUS_CODE21":"AUS","AUS_NAME21":"Australia","AREASQKM21":63.5528,"LOCI_URI21":"http://linked.data.gov.au/dataset/asgsed3/SAL/30012","SHAPE_Leng":0.501346863364,"SHAPE_Area":0.00583415118334,"fill":"#f28e2c"},"geometry":{"type":"Point","coordinates":[153.27114999999998,-28.0624]}},{"type":"Feature","properties":{"SAL_CODE21":"30013","SAL_NAME21":"Aeroglen","STE_CODE21":"3","STE_NAME21":"Queensland","AUS_CODE21":"AUS","AUS_NAME21":"Australia","AREASQKM21":9.8644,"LOCI_URI21":"http://linked.data.gov.au/dataset/asgsed3/SAL/30013","SHAPE_Leng":0.175147046738,"SHAPE_Area":0.000836526253456,"fill":"#e15759"},"geometry":{"type":"Point","coordinates":[145.75653,-16.877209999999998]}},{"type":"Feature","properties":{"SAL_CODE21":"30014","SAL_NAME21":"Agnes Water","STE_CODE21":"3","STE_NAME21":"Queensland","AUS_CODE21":"AUS","AUS_NAME21":"Australia","AREASQKM21":40.2617,"LOCI_URI21":"http://linked.data.gov.au/dataset/asgsed3/SAL/30014","SHAPE_Leng":0.303437159237,"SHAPE_Area":0.00357871763565,"fill":"#f28e2c"},"geometry":{"type":"Point","coordinates":[151.900145,-24.224455]}},{"type":"Feature","properties":{"SAL_CODE21":"30015","SAL_NAME21":"Airdmillan","STE_CODE21":"3","STE_NAME21":"Queensland","AUS_CODE21":"AUS","AUS_NAME21":"Australia","AREASQKM21":57.4285,"LOCI_URI21":"http://linked.data.gov.au/dataset/asgsed3/SAL/30015","SHAPE_Leng":0.438279709837,"SHAPE_Area":0.00494285262662,"fill":"#76b7b2"},"geometry":{"type":"Point","coordinates":[147.481785,-19.523015]}},{"type":"Feature","properties":{"SAL_CODE21":"30016","SAL_NAME21":"Airlie Beach","STE_CODE21":"3","STE_NAME21":"Queensland","AUS_CODE21":"AUS","AUS_NAME21":"Australia","AREASQKM21":3.053,"LOCI_URI21":"http://linked.data.gov.au/dataset/asgsed3/SAL/30016","SHAPE_Leng":0.0857239947007,"SHAPE_Area":0.000263989600125,"fill":"#4e79a7"},"geometry":{"type":"Point","coordinates":[148.71749,-20.272959999999998]}},{"type":"Feature","properties":{"SAL_CODE21":"30017","SAL_NAME21":"Airville","STE_CODE21":"3","STE_NAME21":"Queensland","AUS_CODE21":"AUS","AUS_NAME21":"Australia","AREASQKM21":43.9094,"LOCI_URI21":"http://linked.data.gov.au/dataset/asgsed3/SAL/30017","SHAPE_Leng":0.322825451928,"SHAPE_Area":0.00378164961216,"fill":"#76b7b2"},"geometry":{"type":"Point","coordinates":[147.34355,-19.637105]}},{"type":"Feature","properties":{"SAL_CODE21":"30018","SAL_NAME21":"Aitkenvale","STE_CODE21":"3","STE_NAME21":"Queensland","AUS_CODE21":"AUS","AUS_NAME21":"Australia","AREASQKM21":3.3069,"LOCI_URI21":"http://linked.data.gov.au/dataset/asgsed3/SAL/30018","SHAPE_Leng":0.0669048685467,"SHAPE_Area":0.00028425011281,"fill":"#9c755f"},"geometry":{"type":"Point","coordinates":[146.769315,-19.29891]}},{"type":"Feature","properties":{"SAL_CODE21":"30019","SAL_NAME21":"Alabama Hill","STE_CODE21":"3","STE_NAME21":"Queensland","AUS_CODE21":"AUS","AUS_NAME21":"Australia","AREASQKM21":0.7843,"LOCI_URI21":"http://linked.data.gov.au/dataset/asgsed3/SAL/30019","SHAPE_Leng":0.0386983229108,"SHAPE_Area":0.0000677270408632,"fill":"#59a14f"},"geometry":{"type":"Point","coordinates":[146.24893,-20.08225]}},{"type":"Feature","properties":{"SAL_CODE21":"30020","SAL_NAME21":"Albany Creek","STE_CODE21":"3","STE_NAME21":"Queensland","AUS_CODE21":"AUS","AUS_NAME21":"Australia","AREASQKM21":9.6239,"LOCI_URI21":"http://linked.data.gov.au/dataset/asgsed3/SAL/30020","SHAPE_Leng":0.172259747641,"SHAPE_Area":0.000877808030342,"fill":"#9c755f"},"geometry":{"type":"Point","coordinates":[152.96823,-27.35368]}},{"type":"Feature","properties":{"SAL_CODE21":"30021","SAL_NAME21":"Alberta","STE_CODE21":"3","STE_NAME21":"Queensland","AUS_CODE21":"AUS","AUS_NAME21":"Australia","AREASQKM21":385.4344,"LOCI_URI21":"http://linked.data.gov.au/dataset/asgsed3/SAL/30021","SHAPE_Leng":1.23277964937,"SHAPE_Area":0.034280111006,"fill":"#9c755f"},"geometry":{"type":"Point","coordinates":[149.75170500000002,-24.35255]}},{"type":"Feature","properties":{"SAL_CODE21":"30022","SAL_NAME21":"Alberton (Qld)","STE_CODE21":"3","STE_NAME21":"Queensland","AUS_CODE21":"AUS","AUS_NAME21":"Australia","AREASQKM21":16.1991,"LOCI_URI21":"http://linked.data.gov.au/dataset/asgsed3/SAL/30022","SHAPE_Leng":0.198727968358,"SHAPE_Area":0.00148217951295,"fill":"#e15759"},"geometry":{"type":"Point","coordinates":[153.265835,-27.708365]}},{"type":"Feature","properties":{"SAL_CODE21":"30023","SAL_NAME21":"Albinia","STE_CODE21":"3","STE_NAME21":"Queensland","AUS_CODE21":"AUS","AUS_NAME21":"Australia","AREASQKM21":1068.0177,"LOCI_URI21":"http://linked.data.gov.au/dataset/asgsed3/SAL/30023","SHAPE_Leng":1.67733881663,"SHAPE_Area":0.0950883712044,"fill":"#ff9da7"},"geometry":{"type":"Point","coordinates":[148.39382999999998,-24.443604999999998]}},{"type":"Feature","properties":{"SAL_CODE21":"30024","SAL_NAME21":"Albion (Brisbane - Qld)","STE_CODE21":"3","STE_NAME21":"Queensland","AUS_CODE21":"AUS","AUS_NAME21":"Australia","AREASQKM21":1.3148,"LOCI_URI21":"http://linked.data.gov.au/dataset/asgsed3/SAL/30024","SHAPE_Leng":0.0667241057413,"SHAPE_Area":0.000120021264862,"fill":"#f28e2c"},"geometry":{"type":"Point","coordinates":[153.04295000000002,-27.433495]}},{"type":"Feature","properties":{"SAL_CODE21":"30025","SAL_NAME21":"Albion (Richmond - Qld)","STE_CODE21":"3","STE_NAME21":"Queensland","AUS_CODE21":"AUS","AUS_NAME21":"Australia","AREASQKM21":5538.5649,"LOCI_URI21":"http://linked.data.gov.au/dataset/asgsed3/SAL/30025","SHAPE_Leng":4.01878620085,"SHAPE_Area":0.482194765503,"fill":"#af7aa1"},"geometry":{"type":"Point","coordinates":[142.649245,-21.324535]}},{"type":"Feature","properties":{"SAL_CODE21":"30026","SAL_NAME21":"Alderley","STE_CODE21":"3","STE_NAME21":"Queensland","AUS_CODE21":"AUS","AUS_NAME21":"Australia","AREASQKM21":2.5703,"LOCI_URI21":"http://linked.data.gov.au/dataset/asgsed3/SAL/30026","SHAPE_Leng":0.0978030411605,"SHAPE_Area":0.000234611448902,"fill":"#76b7b2"},"geometry":{"type":"Point","coordinates":[153.00049,-27.42521]}},{"type":"Feature","properties":{"SAL_CODE21":"30027","SAL_NAME21":"Aldershot","STE_CODE21":"3","STE_NAME21":"Queensland","AUS_CODE21":"AUS","AUS_NAME21":"Australia","AREASQKM21":10.2414,"LOCI_URI21":"http://linked.data.gov.au/dataset/asgsed3/SAL/30027","SHAPE_Leng":0.194690842802,"SHAPE_Area":0.000919348451287,"fill":"#76b7b2"},"geometry":{"type":"Point","coordinates":[152.65893499999999,-25.47464]}},{"type":"Feature","properties":{"SAL_CODE21":"30028","SAL_NAME21":"Aldoga","STE_CODE21":"3","STE_NAME21":"Queensland","AUS_CODE21":"AUS","AUS_NAME21":"Australia","AREASQKM21":82.0737,"LOCI_URI21":"http://linked.data.gov.au/dataset/asgsed3/SAL/30028","SHAPE_Leng":0.542928271754,"SHAPE_Area":0.00727356792585,"fill":"#bab0ab"},"geometry":{"type":"Point","coordinates":[151.04791,-23.844929999999998]}},{"type":"Feature","properties":{"SAL_CODE21":"30029","SAL_NAME21":"Alexandra (Qld)","STE_CODE21":"3","STE_NAME21":"Queensland","AUS_CODE21":"AUS","AUS_NAME21":"Australia","AREASQKM21":7.4735,"LOCI_URI21":"http://linked.data.gov.au/dataset/asgsed3/SAL/30029","SHAPE_Leng":0.120812076657,"SHAPE_Area":0.000649915218506,"fill":"#edc949"},"geometry":{"type":"Point","coordinates":[149.09253999999999,-21.16281]}},{"type":"Feature","properties":{"SAL_CODE21":"30030","SAL_NAME21":"Alexandra Headland","STE_CODE21":"3","STE_NAME21":"Queensland","AUS_CODE21":"AUS","AUS_NAME21":"Australia","AREASQKM21":1.5035,"LOCI_URI21":"http://linked.data.gov.au/dataset/asgsed3/SAL/30030","SHAPE_Leng":0.0576025122485,"SHAPE_Area":0.000136331598461,"fill":"#edc949"},"geometry":{"type":"Point","coordinates":[153.10528,-26.669620000000002]}},{"type":"Feature","properties":{"SAL_CODE21":"30031","SAL_NAME21":"Alexandra Hills","STE_CODE21":"3","STE_NAME21":"Queensland","AUS_CODE21":"AUS","AUS_NAME21":"Australia","AREASQKM21":13.6902,"LOCI_URI21":"http://linked.data.gov.au/dataset/asgsed3/SAL/30031","SHAPE_Leng":0.190192361224,"SHAPE_Area":0.00125061726954,"fill":"#af7aa1"},"geometry":{"type":"Point","coordinates":[153.229125,-27.539144999999998]}},{"type":"Feature","properties":{"SAL_CODE21":"30032","SAL_NAME21":"Algester","STE_CODE21":"3","STE_NAME21":"Queensland","AUS_CODE21":"AUS","AUS_NAME21":"Australia","AREASQKM21":3.6903,"LOCI_URI21":"http://linked.data.gov.au/dataset/asgsed3/SAL/30032","SHAPE_Leng":0.0903491132944,"SHAPE_Area":0.000337394077655,"fill":"#59a14f"},"geometry":{"type":"Point","coordinates":[153.03273000000002,-27.61282]}},{"type":"Feature","properties":{"SAL_CODE21":"30033","SAL_NAME21":"Alice Creek","STE_CODE21":"3","STE_NAME21":"Queensland","AUS_CODE21":"AUS","AUS_NAME21":"Australia","AREASQKM21":88.1137,"LOCI_URI21":"http://linked.data.gov.au/dataset/asgsed3/SAL/30033","SHAPE_Leng":0.533563705774,"SHAPE_Area":0.00799527747428,"fill":"#af7aa1"},"geometry":{"type":"Point","coordinates":[151.622355,-26.76312]}},{"type":"Feature","properties":{"SAL_CODE21":"30034","SAL_NAME21":"Alice River","STE_CODE21":"3","STE_NAME21":"Queensland","AUS_CODE21":"AUS","AUS_NAME21":"Australia","AREASQKM21":39.7577,"LOCI_URI21":"http://linked.data.gov.au/dataset/asgsed3/SAL/30034","SHAPE_Leng":0.30563563492,"SHAPE_Area":0.00341820245629,"fill":"#edc949"},"geometry":{"type":"Point","coordinates":[146.62588499999998,-19.35013]}},{"type":"Feature","properties":{"SAL_CODE21":"30035","SAL_NAME21":"Allan","STE_CODE21":"3","STE_NAME21":"Queensland","AUS_CODE21":"AUS","AUS_NAME21":"Australia","AREASQKM21":8.8587,"LOCI_URI21":"http://linked.data.gov.au/dataset/asgsed3/SAL/30035","SHAPE_Leng":0.158681826106,"SHAPE_Area":0.000814144912383,"fill":"#edc949"},"geometry":{"type":"Point","coordinates":[151.95054,-28.197180000000003]}},{"type":"Feature","properties":{"SAL_CODE21":"30036","SAL_NAME21":"Allandale (Qld)","STE_CODE21":"3","STE_NAME21":"Queensland","AUS_CODE21":"AUS","AUS_NAME21":"Australia","AREASQKM21":48.7719,"LOCI_URI21":"http://linked.data.gov.au/dataset/asgsed3/SAL/30036","SHAPE_Leng":0.356744774828,"SHAPE_Area":0.00447466530807,"fill":"#e15759"},"geometry":{"type":"Point","coordinates":[152.764295,-28.006194999999998]}},{"type":"Feature","properties":{"SAL_CODE21":"30037","SAL_NAME21":"Allenstown","STE_CODE21":"3","STE_NAME21":"Queensland","AUS_CODE21":"AUS","AUS_NAME21":"Australia","AREASQKM21":2.2288,"LOCI_URI21":"http://linked.data.gov.au/dataset/asgsed3/SAL/30037","SHAPE_Leng":0.0836498151775,"SHAPE_Area":0.000196900069259,"fill":"#ff9da7"},"geometry":{"type":"Point","coordinates":[150.50437499999998,-23.395845]}},{"type":"Feature","properties":{"SAL_CODE21":"30038","SAL_NAME21":"Allenview","STE_CODE21":"3","STE_NAME21":"Queensland","AUS_CODE21":"AUS","AUS_NAME21":"Australia","AREASQKM21":43.4943,"LOCI_URI21":"http://linked.data.gov.au/dataset/asgsed3/SAL/30038","SHAPE_Leng":0.404011964311,"SHAPE_Area":0.0039870371993,"fill":"#af7aa1"},"geometry":{"type":"Point","coordinates":[152.916675,-27.91172]}},{"type":"Feature","properties":{"SAL_CODE21":"30039","SAL_NAME21":"Alligator Creek (Mackay - Qld)","STE_CODE21":"3","STE_NAME21":"Queensland","AUS_CODE21":"AUS","AUS_NAME21":"Australia","AREASQKM21":78.0299,"LOCI_URI21":"http://linked.data.gov.au/dataset/asgsed3/SAL/30039","SHAPE_Leng":0.571218688954,"SHAPE_Area":0.00679278157274,"fill":"#edc949"},"geometry":{"type":"Point","coordinates":[149.21824,-21.307180000000002]}},{"type":"Feature","properties":{"SAL_CODE21":"30040","SAL_NAME21":"Alligator Creek (Townsville - Qld)","STE_CODE21":"3","STE_NAME21":"Queensland","AUS_CODE21":"AUS","AUS_NAME21":"Australia","AREASQKM21":49.4022,"LOCI_URI21":"http://linked.data.gov.au/dataset/asgsed3/SAL/30040","SHAPE_Leng":0.366867576374,"SHAPE_Area":0.00424906525065,"fill":"#76b7b2"},"geometry":{"type":"Point","coordinates":[146.94727,-19.415865]}},{"type":"Feature","properties":{"SAL_CODE21":"30041","SAL_NAME21":"Allora","STE_CODE21":"3","STE_NAME21":"Queensland","AUS_CODE21":"AUS","AUS_NAME21":"Australia","AREASQKM21":96.4732,"LOCI_URI21":"http://linked.data.gov.au/dataset/asgsed3/SAL/30041","SHAPE_Leng":0.438611978975,"SHAPE_Area":0.00885181151887,"fill":"#4e79a7"},"geometry":{"type":"Point","coordinates":[151.9731,-28.018810000000002]}},{"type":"Feature","properties":{"SAL_CODE21":"30042","SAL_NAME21":"Alloway","STE_CODE21":"3","STE_NAME21":"Queensland","AUS_CODE21":"AUS","AUS_NAME21":"Australia","AREASQKM21":72.7884,"LOCI_URI21":"http://linked.data.gov.au/dataset/asgsed3/SAL/30042","SHAPE_Leng":0.393789890398,"SHAPE_Area":0.00650689291901,"fill":"#bab0ab"},"geometry":{"type":"Point","coordinates":[152.363835,-24.95328]}},{"type":"Feature","properties":{"SAL_CODE21":"30043","SAL_NAME21":"Almaden","STE_CODE21":"3","STE_NAME21":"Queensland","AUS_CODE21":"AUS","AUS_NAME21":"Australia","AREASQKM21":797.525,"LOCI_URI21":"http://linked.data.gov.au/dataset/asgsed3/SAL/30043","SHAPE_Leng":1.32255705565,"SHAPE_Area":0.0678161119249,"fill":"#ff9da7"},"geometry":{"type":"Point","coordinates":[144.670975,-17.410025]}},{"type":"Feature","properties":{"SAL_CODE21":"30044","SAL_NAME21":"Aloomba","STE_CODE21":"3","STE_NAME21":"Queensland","AUS_CODE21":"AUS","AUS_NAME21":"Australia","AREASQKM21":110.9799,"LOCI_URI21":"http://linked.data.gov.au/dataset/asgsed3/SAL/30044","SHAPE_Leng":0.811434611215,"SHAPE_Area":0.0094239625953,"fill":"#f28e2c"},"geometry":{"type":"Point","coordinates":[145.86611,-17.13778]}},{"type":"Feature","properties":{"SAL_CODE21":"30045","SAL_NAME21":"Alpha","STE_CODE21":"3","STE_NAME21":"Queensland","AUS_CODE21":"AUS","AUS_NAME21":"Australia","AREASQKM21":12669.4364,"LOCI_URI21":"http://linked.data.gov.au/dataset/asgsed3/SAL/30045","SHAPE_Leng":5.98411168449,"SHAPE_Area":1.12100103494,"fill":"#bab0ab"},"geometry":{"type":"Point","coordinates":[146.72082,-23.6006]}},{"type":"Feature","properties":{"SAL_CODE21":"30046","SAL_NAME21":"Alsace","STE_CODE21":"3","STE_NAME21":"Queensland","AUS_CODE21":"AUS","AUS_NAME21":"Australia","AREASQKM21":351.8232,"LOCI_URI21":"http://linked.data.gov.au/dataset/asgsed3/SAL/30046","SHAPE_Leng":0.718358063151,"SHAPE_Area":0.0310520482082,"fill":"#e15759"},"geometry":{"type":"Point","coordinates":[149.28392000000002,-23.287914999999998]}},{"type":"Feature","properties":{"SAL_CODE21":"30047","SAL_NAME21":"Alton Downs","STE_CODE21":"3","STE_NAME21":"Queensland","AUS_CODE21":"AUS","AUS_NAME21":"Australia","AREASQKM21":177.4717,"LOCI_URI21":"http://linked.data.gov.au/dataset/asgsed3/SAL/30047","SHAPE_Leng":0.590715573937,"SHAPE_Area":0.0156676533837,"fill":"#ff9da7"},"geometry":{"type":"Point","coordinates":[150.36626,-23.313814999999998]}},{"type":"Feature","properties":{"SAL_CODE21":"30048","SAL_NAME21":"Alva","STE_CODE21":"3","STE_NAME21":"Queensland","AUS_CODE21":"AUS","AUS_NAME21":"Australia","AREASQKM21":112.8216,"LOCI_URI21":"http://linked.data.gov.au/dataset/asgsed3/SAL/30048","SHAPE_Leng":0.899272119471,"SHAPE_Area":0.00970643596374,"fill":"#59a14f"},"geometry":{"type":"Point","coordinates":[147.43696,-19.411395]}},{"type":"Feature","properties":{"SAL_CODE21":"30049","SAL_NAME21":"Amamoor","STE_CODE21":"3","STE_NAME21":"Queensland","AUS_CODE21":"AUS","AUS_NAME21":"Australia","AREASQKM21":34.3557,"LOCI_URI21":"http://linked.data.gov.au/dataset/asgsed3/SAL/30049","SHAPE_Leng":0.359723729943,"SHAPE_Area":0.00310641165891,"fill":"#59a14f"},"geometry":{"type":"Point","coordinates":[152.67443,-26.345695]}},{"type":"Feature","properties":{"SAL_CODE21":"30050","SAL_NAME21":"Amamoor Creek","STE_CODE21":"3","STE_NAME21":"Queensland","AUS_CODE21":"AUS","AUS_NAME21":"Australia","AREASQKM21":168.8141,"LOCI_URI21":"http://linked.data.gov.au/dataset/asgsed3/SAL/30050","SHAPE_Leng":0.816944018373,"SHAPE_Area":0.0152679415381,"fill":"#76b7b2"},"geometry":{"type":"Point","coordinates":[152.52849,-26.37613]}},{"type":"Feature","properties":{"SAL_CODE21":"30051","SAL_NAME21":"Amaroo (Qld)","STE_CODE21":"3","STE_NAME21":"Queensland","AUS_CODE21":"AUS","AUS_NAME21":"Australia","AREASQKM21":9358.7044,"LOCI_URI21":"http://linked.data.gov.au/dataset/asgsed3/SAL/30051","SHAPE_Leng":4.99012832601,"SHAPE_Area":0.825865853645,"fill":"#af7aa1"},"geometry":{"type":"Point","coordinates":[139.395305,-23.26043]}},{"type":"Feature","properties":{"SAL_CODE21":"30052","SAL_NAME21":"Amber","STE_CODE21":"3","STE_NAME21":"Queensland","AUS_CODE21":"AUS","AUS_NAME21":"Australia","AREASQKM21":1032.8979,"LOCI_URI21":"http://linked.data.gov.au/dataset/asgsed3/SAL/30052","SHAPE_Leng":1.83537779568,"SHAPE_Area":0.0879850697443,"fill":"#af7aa1"},"geometry":{"type":"Point","coordinates":[144.24477000000002,-17.66978]}},{"type":"Feature","properties":{"SAL_CODE21":"30053","SAL_NAME21":"Amberley","STE_CODE21":"3","STE_NAME21":"Queensland","AUS_CODE21":"AUS","AUS_NAME21":"Australia","AREASQKM21":26.1111,"LOCI_URI21":"http://linked.data.gov.au/dataset/asgsed3/SAL/30053","SHAPE_Leng":0.254158677704,"SHAPE_Area":0.00238747489681,"fill":"#59a14f"},"geometry":{"type":"Point","coordinates":[152.699585,-27.630380000000002]}},{"type":"Feature","properties":{"SAL_CODE21":"30054","SAL_NAME21":"Ambrose","STE_CODE21":"3","STE_NAME21":"Queensland","AUS_CODE21":"AUS","AUS_NAME21":"Australia","AREASQKM21":63.263,"LOCI_URI21":"http://linked.data.gov.au/dataset/asgsed3/SAL/30054","SHAPE_Leng":0.433663247123,"SHAPE_Area":0.00560553686706,"fill":"#4e79a7"},"geometry":{"type":"Point","coordinates":[150.903995,-23.811425]}},{"type":"Feature","properties":{"SAL_CODE21":"30055","SAL_NAME21":"Amby","STE_CODE21":"3","STE_NAME21":"Queensland","AUS_CODE21":"AUS","AUS_NAME21":"Australia","AREASQKM21":198.9801,"LOCI_URI21":"http://linked.data.gov.au/dataset/asgsed3/SAL/30055","SHAPE_Leng":0.671595101741,"SHAPE_Area":0.018020786795,"fill":"#59a14f"},"geometry":{"type":"Point","coordinates":[148.18361,-26.53529]}},{"type":"Feature","properties":{"SAL_CODE21":"30056","SAL_NAME21":"Amiens","STE_CODE21":"3","STE_NAME21":"Queensland","AUS_CODE21":"AUS","AUS_NAME21":"Australia","AREASQKM21":51.9032,"LOCI_URI21":"http://linked.data.gov.au/dataset/asgsed3/SAL/30056","SHAPE_Leng":0.372486363199,"SHAPE_Area":0.00478801962019,"fill":"#4e79a7"},"geometry":{"type":"Point","coordinates":[151.815765,-28.598485]}},{"type":"Feature","properties":{"SAL_CODE21":"30057","SAL_NAME21":"Amity","STE_CODE21":"3","STE_NAME21":"Queensland","AUS_CODE21":"AUS","AUS_NAME21":"Australia","AREASQKM21":5.0628,"LOCI_URI21":"http://linked.data.gov.au/dataset/asgsed3/SAL/30057","SHAPE_Leng":0.115585945547,"SHAPE_Area":0.000461972767446,"fill":"#edc949"},"geometry":{"type":"Point","coordinates":[153.45164,-27.400215]}},{"type":"Feature","properties":{"SAL_CODE21":"30058","SAL_NAME21":"Anakie Siding","STE_CODE21":"3","STE_NAME21":"Queensland","AUS_CODE21":"AUS","AUS_NAME21":"Australia","AREASQKM21":253.1135,"LOCI_URI21":"http://linked.data.gov.au/dataset/asgsed3/SAL/30058","SHAPE_Leng":0.789043018846,"SHAPE_Area":0.0223915473869,"fill":"#f28e2c"},"geometry":{"type":"Point","coordinates":[147.81154500000002,-23.62299]}},{"type":"Feature","properties":{"SAL_CODE21":"30059","SAL_NAME21":"Andergrove","STE_CODE21":"3","STE_NAME21":"Queensland","AUS_CODE21":"AUS","AUS_NAME21":"Australia","AREASQKM21":8.4799,"LOCI_URI21":"http://linked.data.gov.au/dataset/asgsed3/SAL/30059","SHAPE_Leng":0.13047639206,"SHAPE_Area":0.000737133990929,"fill":"#af7aa1"},"geometry":{"type":"Point","coordinates":[149.183815,-21.09262]}},{"type":"Feature","properties":{"SAL_CODE21":"30060","SAL_NAME21":"Anderleigh","STE_CODE21":"3","STE_NAME21":"Queensland","AUS_CODE21":"AUS","AUS_NAME21":"Australia","AREASQKM21":48.1769,"LOCI_URI21":"http://linked.data.gov.au/dataset/asgsed3/SAL/30060","SHAPE_Leng":0.333733194233,"SHAPE_Area":0.00434402325066,"fill":"#4e79a7"},"geometry":{"type":"Point","coordinates":[152.679685,-26.018245]}},{"type":"Feature","properties":{"SAL_CODE21":"30061","SAL_NAME21":"Andromache","STE_CODE21":"3","STE_NAME21":"Queensland","AUS_CODE21":"AUS","AUS_NAME21":"Australia","AREASQKM21":423.065,"LOCI_URI21":"http://linked.data.gov.au/dataset/asgsed3/SAL/30061","SHAPE_Leng":1.13739387169,"SHAPE_Area":0.0366553117468,"fill":"#59a14f"},"geometry":{"type":"Point","coordinates":[148.43151,-20.59439]}},{"type":"Feature","properties":{"SAL_CODE21":"30062","SAL_NAME21":"Anduramba","STE_CODE21":"3","STE_NAME21":"Queensland","AUS_CODE21":"AUS","AUS_NAME21":"Australia","AREASQKM21":283.6073,"LOCI_URI21":"http://linked.data.gov.au/dataset/asgsed3/SAL/30062","SHAPE_Leng":1.12556187186,"SHAPE_Area":0.0258041839213,"fill":"#f28e2c"},"geometry":{"type":"Point","coordinates":[152.128425,-27.0778]}},{"type":"Feature","properties":{"SAL_CODE21":"30063","SAL_NAME21":"Annandale (Qld)","STE_CODE21":"3","STE_NAME21":"Queensland","AUS_CODE21":"AUS","AUS_NAME21":"Australia","AREASQKM21":6.8402,"LOCI_URI21":"http://linked.data.gov.au/dataset/asgsed3/SAL/30063","SHAPE_Leng":0.120802307508,"SHAPE_Area":0.000587993133631,"fill":"#59a14f"},"geometry":{"type":"Point","coordinates":[146.787,-19.309365]}},{"type":"Feature","properties":{"SAL_CODE21":"30064","SAL_NAME21":"Annerley","STE_CODE21":"3","STE_NAME21":"Queensland","AUS_CODE21":"AUS","AUS_NAME21":"Australia","AREASQKM21":2.8756,"LOCI_URI21":"http://linked.data.gov.au/dataset/asgsed3/SAL/30064","SHAPE_Leng":0.0883025034069,"SHAPE_Area":0.000262655852589,"fill":"#4e79a7"},"geometry":{"type":"Point","coordinates":[153.03377,-27.512565000000002]}},{"type":"Feature","properties":{"SAL_CODE21":"30065","SAL_NAME21":"Anstead","STE_CODE21":"3","STE_NAME21":"Queensland","AUS_CODE21":"AUS","AUS_NAME21":"Australia","AREASQKM21":13.8524,"LOCI_URI21":"http://linked.data.gov.au/dataset/asgsed3/SAL/30065","SHAPE_Leng":0.217929778751,"SHAPE_Area":0.00126554789101,"fill":"#f28e2c"},"geometry":{"type":"Point","coordinates":[152.865995,-27.538040000000002]}},{"type":"Feature","properties":{"SAL_CODE21":"30066","SAL_NAME21":"Anthony","STE_CODE21":"3","STE_NAME21":"Queensland","AUS_CODE21":"AUS","AUS_NAME21":"Australia","AREASQKM21":13.8343,"LOCI_URI21":"http://linked.data.gov.au/dataset/asgsed3/SAL/30066","SHAPE_Leng":0.169931381296,"SHAPE_Area":0.00126778846871,"fill":"#bab0ab"},"geometry":{"type":"Point","coordinates":[152.68835,-27.880705]}},{"type":"Feature","properties":{"SAL_CODE21":"30067","SAL_NAME21":"Antigua","STE_CODE21":"3","STE_NAME21":"Queensland","AUS_CODE21":"AUS","AUS_NAME21":"Australia","AREASQKM21":17.1699,"LOCI_URI21":"http://linked.data.gov.au/dataset/asgsed3/SAL/30067","SHAPE_Leng":0.208112717505,"SHAPE_Area":0.00154330336617,"fill":"#edc949"},"geometry":{"type":"Point","coordinates":[152.591795,-25.635514999999998]}},{"type":"Feature","properties":{"SAL_CODE21":"30068","SAL_NAME21":"Apple Tree Creek","STE_CODE21":"3","STE_NAME21":"Queensland","AUS_CODE21":"AUS","AUS_NAME21":"Australia","AREASQKM21":23.8789,"LOCI_URI21":"http://linked.data.gov.au/dataset/asgsed3/SAL/30068","SHAPE_Leng":0.23260358933,"SHAPE_Area":0.00213937901173,"fill":"#59a14f"},"geometry":{"type":"Point","coordinates":[152.220735,-25.233515]}},{"type":"Feature","properties":{"SAL_CODE21":"30069","SAL_NAME21":"Applethorpe","STE_CODE21":"3","STE_NAME21":"Queensland","AUS_CODE21":"AUS","AUS_NAME21":"Australia","AREASQKM21":46.7077,"LOCI_URI21":"http://linked.data.gov.au/dataset/asgsed3/SAL/30069","SHAPE_Leng":0.383006153054,"SHAPE_Area":0.00430929010078,"fill":"#edc949"},"geometry":{"type":"Point","coordinates":[151.93624,-28.616149999999998]}},{"type":"Feature","properties":{"SAL_CODE21":"30070","SAL_NAME21":"Arafura Sea","STE_CODE21":"3","STE_NAME21":"Queensland","AUS_CODE21":"AUS","AUS_NAME21":"Australia","AREASQKM21":0.4258,"LOCI_URI21":"http://linked.data.gov.au/dataset/asgsed3/SAL/30070","SHAPE_Leng":0.0648668583696,"SHAPE_Area":0.0000351603991737,"fill":"#ff9da7"},"geometry":{"type":"Point","coordinates":[141.72798999999998,-10.353515000000002]}},{"type":"Feature","properties":{"SAL_CODE21":"30071","SAL_NAME21":"Araluen (Qld)","STE_CODE21":"3","STE_NAME21":"Queensland","AUS_CODE21":"AUS","AUS_NAME21":"Australia","AREASQKM21":6.5676,"LOCI_URI21":"http://linked.data.gov.au/dataset/asgsed3/SAL/30071","SHAPE_Leng":0.150037122126,"SHAPE_Area":0.00059289588944,"fill":"#76b7b2"},"geometry":{"type":"Point","coordinates":[152.66285,-26.158045]}},{"type":"Feature","properties":{"SAL_CODE21":"30072","SAL_NAME21":"Aramac","STE_CODE21":"3","STE_NAME21":"Queensland","AUS_CODE21":"AUS","AUS_NAME21":"Australia","AREASQKM21":13502.5996,"LOCI_URI21":"http://linked.data.gov.au/dataset/asgsed3/SAL/30072","SHAPE_Leng":6.96119505232,"SHAPE_Area":1.18457694632,"fill":"#e15759"},"geometry":{"type":"Point","coordinates":[145.48153000000002,-22.453474999999997]}},{"type":"Feature","properties":{"SAL_CODE21":"30073","SAL_NAME21":"Aramara","STE_CODE21":"3","STE_NAME21":"Queensland","AUS_CODE21":"AUS","AUS_NAME21":"Australia","AREASQKM21":74.8271,"LOCI_URI21":"http://linked.data.gov.au/dataset/asgsed3/SAL/30073","SHAPE_Leng":0.618658477464,"SHAPE_Area":0.00672400370076,"fill":"#9c755f"},"geometry":{"type":"Point","coordinates":[152.34752,-25.600765]}},{"type":"Feature","properties":{"SAL_CODE21":"30074","SAL_NAME21":"Arana Hills","STE_CODE21":"3","STE_NAME21":"Queensland","AUS_CODE21":"AUS","AUS_NAME21":"Australia","AREASQKM21":3.6544,"LOCI_URI21":"http://linked.data.gov.au/dataset/asgsed3/SAL/30074","SHAPE_Leng":0.105256563991,"SHAPE_Area":0.000333448114272,"fill":"#ff9da7"},"geometry":{"type":"Point","coordinates":[152.954825,-27.394620000000003]}},{"type":"Feature","properties":{"SAL_CODE21":"30075","SAL_NAME21":"Aranbanga","STE_CODE21":"3","STE_NAME21":"Queensland","AUS_CODE21":"AUS","AUS_NAME21":"Australia","AREASQKM21":221.3907,"LOCI_URI21":"http://linked.data.gov.au/dataset/asgsed3/SAL/30075","SHAPE_Leng":0.881412795571,"SHAPE_Area":0.0199292581249,"fill":"#bab0ab"},"geometry":{"type":"Point","coordinates":[151.65314,-25.81288]}},{"type":"Feature","properties":{"SAL_CODE21":"30076","SAL_NAME21":"Aratula (Qld)","STE_CODE21":"3","STE_NAME21":"Queensland","AUS_CODE21":"AUS","AUS_NAME21":"Australia","AREASQKM21":26.2465,"LOCI_URI21":"http://linked.data.gov.au/dataset/asgsed3/SAL/30076","SHAPE_Leng":0.281240579729,"SHAPE_Area":0.00240742959811,"fill":"#4e79a7"},"geometry":{"type":"Point","coordinates":[152.540755,-27.98402]}},{"type":"Feature","properties":{"SAL_CODE21":"30077","SAL_NAME21":"Arbouin","STE_CODE21":"3","STE_NAME21":"Queensland","AUS_CODE21":"AUS","AUS_NAME21":"Australia","AREASQKM21":1062.0321,"LOCI_URI21":"http://linked.data.gov.au/dataset/asgsed3/SAL/30077","SHAPE_Leng":1.48513708063,"SHAPE_Area":0.0901508521328,"fill":"#bab0ab"},"geometry":{"type":"Point","coordinates":[143.980545,-17.086100000000002]}},{"type":"Feature","properties":{"SAL_CODE21":"30078","SAL_NAME21":"Arcadia (Qld)","STE_CODE21":"3","STE_NAME21":"Queensland","AUS_CODE21":"AUS","AUS_NAME21":"Australia","AREASQKM21":5.8513,"LOCI_URI21":"http://linked.data.gov.au/dataset/asgsed3/SAL/30078","SHAPE_Leng":0.130739657185,"SHAPE_Area":0.00050247080203,"fill":"#af7aa1"},"geometry":{"type":"Point","coordinates":[146.86039,-19.143394999999998]}},{"type":"Feature","properties":{"SAL_CODE21":"30079","SAL_NAME21":"Arcadia Valley","STE_CODE21":"3","STE_NAME21":"Queensland","AUS_CODE21":"AUS","AUS_NAME21":"Australia","AREASQKM21":2115.8035,"LOCI_URI21":"http://linked.data.gov.au/dataset/asgsed3/SAL/30079","SHAPE_Leng":3.44541637602,"SHAPE_Area":0.189252754617,"fill":"#76b7b2"},"geometry":{"type":"Point","coordinates":[148.79707000000002,-25.013734999999997]}},{"type":"Feature","properties":{"SAL_CODE21":"30080","SAL_NAME21":"Archer River","STE_CODE21":"3","STE_NAME21":"Queensland","AUS_CODE21":"AUS","AUS_NAME21":"Australia","AREASQKM21":9381.4307,"LOCI_URI21":"http://linked.data.gov.au/dataset/asgsed3/SAL/30080","SHAPE_Leng":5.98452753643,"SHAPE_Area":0.782763308793,"fill":"#76b7b2"},"geometry":{"type":"Point","coordinates":[142.606175,-13.350729999999999]}},{"type":"Feature","properties":{"SAL_CODE21":"30081","SAL_NAME21":"Archerfield","STE_CODE21":"3","STE_NAME21":"Queensland","AUS_CODE21":"AUS","AUS_NAME21":"Australia","AREASQKM21":4.4783,"LOCI_URI21":"http://linked.data.gov.au/dataset/asgsed3/SAL/30081","SHAPE_Leng":0.0974420466956,"SHAPE_Area":0.00040924224313,"fill":"#9c755f"},"geometry":{"type":"Point","coordinates":[153.00915,-27.567140000000002]}},{"type":"Feature","properties":{"SAL_CODE21":"30082","SAL_NAME21":"Arcturus","STE_CODE21":"3","STE_NAME21":"Queensland","AUS_CODE21":"AUS","AUS_NAME21":"Australia","AREASQKM21":1206.3428,"LOCI_URI21":"http://linked.data.gov.au/dataset/asgsed3/SAL/30082","SHAPE_Leng":1.70174144623,"SHAPE_Area":0.107033076812,"fill":"#76b7b2"},"geometry":{"type":"Point","coordinates":[148.32290999999998,-23.975565]}},{"type":"Feature","properties":{"SAL_CODE21":"30083","SAL_NAME21":"Argyll","STE_CODE21":"3","STE_NAME21":"Queensland","AUS_CODE21":"AUS","AUS_NAME21":"Australia","AREASQKM21":1240.4268,"LOCI_URI21":"http://linked.data.gov.au/dataset/asgsed3/SAL/30083","SHAPE_Leng":1.84551937331,"SHAPE_Area":0.109491689936,"fill":"#e15759"},"geometry":{"type":"Point","coordinates":[147.52204,-23.315745]}},{"type":"Feature","properties":{"SAL_CODE21":"30084","SAL_NAME21":"Armstrong Beach","STE_CODE21":"3","STE_NAME21":"Queensland","AUS_CODE21":"AUS","AUS_NAME21":"Australia","AREASQKM21":22.2359,"LOCI_URI21":"http://linked.data.gov.au/dataset/asgsed3/SAL/30084","SHAPE_Leng":0.224191551567,"SHAPE_Area":0.00193731683391,"fill":"#f28e2c"},"geometry":{"type":"Point","coordinates":[149.269495,-21.44519]}},{"type":"Feature","properties":{"SAL_CODE21":"30085","SAL_NAME21":"Armstrong Creek (Qld)","STE_CODE21":"3","STE_NAME21":"Queensland","AUS_CODE21":"AUS","AUS_NAME21":"Australia","AREASQKM21":34.3053,"LOCI_URI21":"http://linked.data.gov.au/dataset/asgsed3/SAL/30085","SHAPE_Leng":0.353294461129,"SHAPE_Area":0.00312533110493,"fill":"#ff9da7"},"geometry":{"type":"Point","coordinates":[152.7932,-27.217715]}},{"type":"Feature","properties":{"SAL_CODE21":"30086","SAL_NAME21":"Aroona","STE_CODE21":"3","STE_NAME21":"Queensland","AUS_CODE21":"AUS","AUS_NAME21":"Australia","AREASQKM21":1.8916,"LOCI_URI21":"http://linked.data.gov.au/dataset/asgsed3/SAL/30086","SHAPE_Leng":0.0578729492162,"SHAPE_Area":0.000171699055079,"fill":"#76b7b2"},"geometry":{"type":"Point","coordinates":[153.11687999999998,-26.782465000000002]}},{"type":"Feature","properties":{"SAL_CODE21":"30087","SAL_NAME21":"Arriga","STE_CODE21":"3","STE_NAME21":"Queensland","AUS_CODE21":"AUS","AUS_NAME21":"Australia","AREASQKM21":155.7196,"LOCI_URI21":"http://linked.data.gov.au/dataset/asgsed3/SAL/30087","SHAPE_Leng":0.704169394234,"SHAPE_Area":0.0132180517361,"fill":"#ff9da7"},"geometry":{"type":"Point","coordinates":[145.2773,-17.066290000000002]}},{"type":"Feature","properties":{"SAL_CODE21":"30088","SAL_NAME21":"Arundel","STE_CODE21":"3","STE_NAME21":"Queensland","AUS_CODE21":"AUS","AUS_NAME21":"Australia","AREASQKM21":10.3831,"LOCI_URI21":"http://linked.data.gov.au/dataset/asgsed3/SAL/30088","SHAPE_Leng":0.218247785496,"SHAPE_Area":0.000951940769689,"fill":"#ff9da7"},"geometry":{"type":"Point","coordinates":[153.36409500000002,-27.940405]}},{"type":"Feature","properties":{"SAL_CODE21":"30089","SAL_NAME21":"Ascot (Brisbane - Qld)","STE_CODE21":"3","STE_NAME21":"Queensland","AUS_CODE21":"AUS","AUS_NAME21":"Australia","AREASQKM21":2.7989,"LOCI_URI21":"http://linked.data.gov.au/dataset/asgsed3/SAL/30089","SHAPE_Leng":0.107593595961,"SHAPE_Area":0.000255408002913,"fill":"#edc949"},"geometry":{"type":"Point","coordinates":[153.064185,-27.42983]}},{"type":"Feature","properties":{"SAL_CODE21":"30090","SAL_NAME21":"Ascot (Toowoomba - Qld)","STE_CODE21":"3","STE_NAME21":"Queensland","AUS_CODE21":"AUS","AUS_NAME21":"Australia","AREASQKM21":33.4837,"LOCI_URI21":"http://linked.data.gov.au/dataset/asgsed3/SAL/30090","SHAPE_Leng":0.340988090082,"SHAPE_Area":0.00306697621671,"fill":"#ff9da7"},"geometry":{"type":"Point","coordinates":[151.99761999999998,-27.826990000000002]}},{"type":"Feature","properties":{"SAL_CODE21":"30091","SAL_NAME21":"Ashfield (Qld)","STE_CODE21":"3","STE_NAME21":"Queensland","AUS_CODE21":"AUS","AUS_NAME21":"Australia","AREASQKM21":4.8844,"LOCI_URI21":"http://linked.data.gov.au/dataset/asgsed3/SAL/30091","SHAPE_Leng":0.0903505042671,"SHAPE_Area":0.000436338820673,"fill":"#9c755f"},"geometry":{"type":"Point","coordinates":[152.396085,-24.87251]}},{"type":"Feature","properties":{"SAL_CODE21":"30092","SAL_NAME21":"Ashgrove","STE_CODE21":"3","STE_NAME21":"Queensland","AUS_CODE21":"AUS","AUS_NAME21":"Australia","AREASQKM21":5.8255,"LOCI_URI21":"http://linked.data.gov.au/dataset/asgsed3/SAL/30092","SHAPE_Leng":0.169776161266,"SHAPE_Area":0.000531723910358,"fill":"#edc949"},"geometry":{"type":"Point","coordinates":[152.98443500000002,-27.44295]}},{"type":"Feature","properties":{"SAL_CODE21":"30093","SAL_NAME21":"Ashmore","STE_CODE21":"3","STE_NAME21":"Queensland","AUS_CODE21":"AUS","AUS_NAME21":"Australia","AREASQKM21":6.8308,"LOCI_URI21":"http://linked.data.gov.au/dataset/asgsed3/SAL/30093","SHAPE_Leng":0.156669998781,"SHAPE_Area":0.000626602837957,"fill":"#f28e2c"},"geometry":{"type":"Point","coordinates":[153.3711,-27.988129999999998]}},{"type":"Feature","properties":{"SAL_CODE21":"30094","SAL_NAME21":"Ashwell","STE_CODE21":"3","STE_NAME21":"Queensland","AUS_CODE21":"AUS","AUS_NAME21":"Australia","AREASQKM21":7.5335,"LOCI_URI21":"http://linked.data.gov.au/dataset/asgsed3/SAL/30094","SHAPE_Leng":0.123331544583,"SHAPE_Area":0.000688794101098,"fill":"#59a14f"},"geometry":{"type":"Point","coordinates":[152.55595499999998,-27.624995]}},{"type":"Feature","properties":{"SAL_CODE21":"30095","SAL_NAME21":"Aspley","STE_CODE21":"3","STE_NAME21":"Queensland","AUS_CODE21":"AUS","AUS_NAME21":"Australia","AREASQKM21":6.4114,"LOCI_URI21":"http://linked.data.gov.au/dataset/asgsed3/SAL/30095","SHAPE_Leng":0.13940662859,"SHAPE_Area":0.00058490532377,"fill":"#bab0ab"},"geometry":{"type":"Point","coordinates":[153.01839,-27.365715]}},{"type":"Feature","properties":{"SAL_CODE21":"30096","SAL_NAME21":"Atherton","STE_CODE21":"3","STE_NAME21":"Queensland","AUS_CODE21":"AUS","AUS_NAME21":"Australia","AREASQKM21":94.1857,"LOCI_URI21":"http://linked.data.gov.au/dataset/asgsed3/SAL/30096","SHAPE_Leng":0.520766504133,"SHAPE_Area":0.00800332602598,"fill":"#edc949"},"geometry":{"type":"Point","coordinates":[145.48082,-17.270135]}},{"type":"Feature","properties":{"SAL_CODE21":"30097","SAL_NAME21":"Athol","STE_CODE21":"3","STE_NAME21":"Queensland","AUS_CODE21":"AUS","AUS_NAME21":"Australia","AREASQKM21":26.7456,"LOCI_URI21":"http://linked.data.gov.au/dataset/asgsed3/SAL/30097","SHAPE_Leng":0.246761523182,"SHAPE_Area":0.00244510257134,"fill":"#af7aa1"},"geometry":{"type":"Point","coordinates":[151.770935,-27.612740000000002]}},{"type":"Feature","properties":{"SAL_CODE21":"30098","SAL_NAME21":"Atkinsons Dam","STE_CODE21":"3","STE_NAME21":"Queensland","AUS_CODE21":"AUS","AUS_NAME21":"Australia","AREASQKM21":26.689,"LOCI_URI21":"http://linked.data.gov.au/dataset/asgsed3/SAL/30098","SHAPE_Leng":0.312300052421,"SHAPE_Area":0.00243576179673,"fill":"#59a14f"},"geometry":{"type":"Point","coordinates":[152.43845499999998,-27.41395]}},{"type":"Feature","properties":{"SAL_CODE21":"30099","SAL_NAME21":"Aubigny","STE_CODE21":"3","STE_NAME21":"Queensland","AUS_CODE21":"AUS","AUS_NAME21":"Australia","AREASQKM21":57.54,"LOCI_URI21":"http://linked.data.gov.au/dataset/asgsed3/SAL/30099","SHAPE_Leng":0.290397156094,"SHAPE_Area":0.00525544961469,"fill":"#f28e2c"},"geometry":{"type":"Point","coordinates":[151.665435,-27.50961]}},{"type":"Feature","properties":{"SAL_CODE21":"30100","SAL_NAME21":"Auburn (Qld)","STE_CODE21":"3","STE_NAME21":"Queensland","AUS_CODE21":"AUS","AUS_NAME21":"Australia","AREASQKM21":1156.8661,"LOCI_URI21":"http://linked.data.gov.au/dataset/asgsed3/SAL/30100","SHAPE_Leng":1.49262983917,"SHAPE_Area":0.104299699944,"fill":"#af7aa1"},"geometry":{"type":"Point","coordinates":[150.49739499999998,-25.987270000000002]}},{"type":"Feature","properties":{"SAL_CODE21":"30101","SAL_NAME21":"Auchenflower","STE_CODE21":"3","STE_NAME21":"Queensland","AUS_CODE21":"AUS","AUS_NAME21":"Australia","AREASQKM21":1.3901,"LOCI_URI21":"http://linked.data.gov.au/dataset/asgsed3/SAL/30101","SHAPE_Leng":0.0646819720531,"SHAPE_Area":0.000126894173509,"fill":"#e15759"},"geometry":{"type":"Point","coordinates":[152.99474,-27.473995000000002]}},{"type":"Feature","properties":{"SAL_CODE21":"30102","SAL_NAME21":"Augathella","STE_CODE21":"3","STE_NAME21":"Queensland","AUS_CODE21":"AUS","AUS_NAME21":"Australia","AREASQKM21":1459.0502,"LOCI_URI21":"http://linked.data.gov.au/dataset/asgsed3/SAL/30102","SHAPE_Leng":1.65902694336,"SHAPE_Area":0.131329330611,"fill":"#9c755f"},"geometry":{"type":"Point","coordinates":[146.5889,-25.806465]}},{"type":"Feature","properties":{"SAL_CODE21":"30103","SAL_NAME21":"Augustine Heights","STE_CODE21":"3","STE_NAME21":"Queensland","AUS_CODE21":"AUS","AUS_NAME21":"Australia","AREASQKM21":5.4801,"LOCI_URI21":"http://linked.data.gov.au/dataset/asgsed3/SAL/30103","SHAPE_Leng":0.113249114882,"SHAPE_Area":0.000501237373211,"fill":"#e15759"},"geometry":{"type":"Point","coordinates":[152.88251,-27.66159]}},{"type":"Feature","properties":{"SAL_CODE21":"30104","SAL_NAME21":"Aurukun","STE_CODE21":"3","STE_NAME21":"Queensland","AUS_CODE21":"AUS","AUS_NAME21":"Australia","AREASQKM21":7423.9891,"LOCI_URI21":"http://linked.data.gov.au/dataset/asgsed3/SAL/30104","SHAPE_Leng":5.30375430813,"SHAPE_Area":0.620106954932,"fill":"#4e79a7"},"geometry":{"type":"Point","coordinates":[141.82582,-13.51283]}},{"type":"Feature","properties":{"SAL_CODE21":"30105","SAL_NAME21":"Austinville","STE_CODE21":"3","STE_NAME21":"Queensland","AUS_CODE21":"AUS","AUS_NAME21":"Australia","AREASQKM21":22.4044,"LOCI_URI21":"http://linked.data.gov.au/dataset/asgsed3/SAL/30105","SHAPE_Leng":0.2626935011,"SHAPE_Area":0.00205826167942,"fill":"#59a14f"},"geometry":{"type":"Point","coordinates":[153.30935,-28.15786]}},{"type":"Feature","properties":{"SAL_CODE21":"30106","SAL_NAME21":"Avenell Heights","STE_CODE21":"3","STE_NAME21":"Queensland","AUS_CODE21":"AUS","AUS_NAME21":"Australia","AREASQKM21":3.0519,"LOCI_URI21":"http://linked.data.gov.au/dataset/asgsed3/SAL/30106","SHAPE_Leng":0.103372220596,"SHAPE_Area":0.000272707754193,"fill":"#59a14f"},"geometry":{"type":"Point","coordinates":[152.370465,-24.88973]}},{"type":"Feature","properties":{"SAL_CODE21":"30107","SAL_NAME21":"Avoca (Qld)","STE_CODE21":"3","STE_NAME21":"Queensland","AUS_CODE21":"AUS","AUS_NAME21":"Australia","AREASQKM21":6.1211,"LOCI_URI21":"http://linked.data.gov.au/dataset/asgsed3/SAL/30107","SHAPE_Leng":0.118978862547,"SHAPE_Area":0.000546871519339,"fill":"#edc949"},"geometry":{"type":"Point","coordinates":[152.30685499999998,-24.88078]}},{"type":"Feature","properties":{"SAL_CODE21":"30108","SAL_NAME21":"Avoca Vale","STE_CODE21":"3","STE_NAME21":"Queensland","AUS_CODE21":"AUS","AUS_NAME21":"Australia","AREASQKM21":205.3028,"LOCI_URI21":"http://linked.data.gov.au/dataset/asgsed3/SAL/30108","SHAPE_Leng":0.963257566564,"SHAPE_Area":0.0186187444677,"fill":"#f28e2c"},"geometry":{"type":"Point","coordinates":[152.22581000000002,-26.682705]}},{"type":"Feature","properties":{"SAL_CODE21":"30109","SAL_NAME21":"Avondale (Qld)","STE_CODE21":"3","STE_NAME21":"Queensland","AUS_CODE21":"AUS","AUS_NAME21":"Australia","AREASQKM21":70.0395,"LOCI_URI21":"http://linked.data.gov.au/dataset/asgsed3/SAL/30109","SHAPE_Leng":0.441843286224,"SHAPE_Area":0.00625178001925,"fill":"#af7aa1"},"geometry":{"type":"Point","coordinates":[152.14798,-24.765005000000002]}},{"type":"Feature","properties":{"SAL_CODE21":"30110","SAL_NAME21":"Ayr","STE_CODE21":"3","STE_NAME21":"Queensland","AUS_CODE21":"AUS","AUS_NAME21":"Australia","AREASQKM21":28.4734,"LOCI_URI21":"http://linked.data.gov.au/dataset/asgsed3/SAL/30110","SHAPE_Leng":0.301521466975,"SHAPE_Area":0.00245127613939,"fill":"#e15759"},"geometry":{"type":"Point","coordinates":[147.407305,-19.562665]}},{"type":"Feature","properties":{"SAL_CODE21":"30111","SAL_NAME21":"Babinda (Qld)","STE_CODE21":"3","STE_NAME21":"Queensland","AUS_CODE21":"AUS","AUS_NAME21":"Australia","AREASQKM21":39.9142,"LOCI_URI21":"http://linked.data.gov.au/dataset/asgsed3/SAL/30111","SHAPE_Leng":0.420851728663,"SHAPE_Area":0.00339304615183,"fill":"#af7aa1"},"geometry":{"type":"Point","coordinates":[145.91752,-17.334015]}},{"type":"Feature","properties":{"SAL_CODE21":"30112","SAL_NAME21":"Back Plains","STE_CODE21":"3","STE_NAME21":"Queensland","AUS_CODE21":"AUS","AUS_NAME21":"Australia","AREASQKM21":39.7752,"LOCI_URI21":"http://linked.data.gov.au/dataset/asgsed3/SAL/30112","SHAPE_Leng":0.286325477926,"SHAPE_Area":0.00364525629948,"fill":"#59a14f"},"geometry":{"type":"Point","coordinates":[151.77326,-27.886789999999998]}},{"type":"Feature","properties":{"SAL_CODE21":"30113","SAL_NAME21":"Badu Island","STE_CODE21":"3","STE_NAME21":"Queensland","AUS_CODE21":"AUS","AUS_NAME21":"Australia","AREASQKM21":102.5447,"LOCI_URI21":"http://linked.data.gov.au/dataset/asgsed3/SAL/30113","SHAPE_Leng":0.446668007349,"SHAPE_Area":0.00845889734869,"fill":"#af7aa1"},"geometry":{"type":"Point","coordinates":[142.13907,-10.1203]}},{"type":"Feature","properties":{"SAL_CODE21":"30114","SAL_NAME21":"Baffle Creek","STE_CODE21":"3","STE_NAME21":"Queensland","AUS_CODE21":"AUS","AUS_NAME21":"Australia","AREASQKM21":46.9841,"LOCI_URI21":"http://linked.data.gov.au/dataset/asgsed3/SAL/30114","SHAPE_Leng":0.528784830947,"SHAPE_Area":0.00418463725322,"fill":"#af7aa1"},"geometry":{"type":"Point","coordinates":[151.948755,-24.473280000000003]}},{"type":"Feature","properties":{"SAL_CODE21":"30115","SAL_NAME21":"Baffle West","STE_CODE21":"3","STE_NAME21":"Queensland","AUS_CODE21":"AUS","AUS_NAME21":"Australia","AREASQKM21":304.0365,"LOCI_URI21":"http://linked.data.gov.au/dataset/asgsed3/SAL/30115","SHAPE_Leng":0.944845096745,"SHAPE_Area":0.0273210761998,"fill":"#4e79a7"},"geometry":{"type":"Point","coordinates":[148.621105,-25.61652]}},{"type":"Feature","properties":{"SAL_CODE21":"30116","SAL_NAME21":"Bahrs Scrub","STE_CODE21":"3","STE_NAME21":"Queensland","AUS_CODE21":"AUS","AUS_NAME21":"Australia","AREASQKM21":9.8338,"LOCI_URI21":"http://linked.data.gov.au/dataset/asgsed3/SAL/30116","SHAPE_Leng":0.144891617589,"SHAPE_Area":0.000900044147909,"fill":"#ff9da7"},"geometry":{"type":"Point","coordinates":[153.17333,-27.737835]}},{"type":"Feature","properties":{"SAL_CODE21":"30117","SAL_NAME21":"Bajool","STE_CODE21":"3","STE_NAME21":"Queensland","AUS_CODE21":"AUS","AUS_NAME21":"Australia","AREASQKM21":588.4069,"LOCI_URI21":"http://linked.data.gov.au/dataset/asgsed3/SAL/30117","SHAPE_Leng":1.48201257098,"SHAPE_Area":0.0520899533661,"fill":"#4e79a7"},"geometry":{"type":"Point","coordinates":[150.58747499999998,-23.69541]}},{"type":"Feature","properties":{"SAL_CODE21":"30118","SAL_NAME21":"Bakers Bend","STE_CODE21":"3","STE_NAME21":"Queensland","AUS_CODE21":"AUS","AUS_NAME21":"Australia","AREASQKM21":2036.021,"LOCI_URI21":"http://linked.data.gov.au/dataset/asgsed3/SAL/30118","SHAPE_Leng":2.22671292375,"SHAPE_Area":0.184698329637,"fill":"#76b7b2"},"geometry":{"type":"Point","coordinates":[146.117755,-26.743225000000002]}},{"type":"Feature","properties":{"SAL_CODE21":"30119","SAL_NAME21":"Bakers Creek (Qld)","STE_CODE21":"3","STE_NAME21":"Queensland","AUS_CODE21":"AUS","AUS_NAME21":"Australia","AREASQKM21":20.9456,"LOCI_URI21":"http://linked.data.gov.au/dataset/asgsed3/SAL/30119","SHAPE_Leng":0.209183316906,"SHAPE_Area":0.00182215724783,"fill":"#59a14f"},"geometry":{"type":"Point","coordinates":[149.15939500000002,-21.21635]}},{"type":"Feature","properties":{"SAL_CODE21":"30120","SAL_NAME21":"Baking Board","STE_CODE21":"3","STE_NAME21":"Queensland","AUS_CODE21":"AUS","AUS_NAME21":"Australia","AREASQKM21":91.1241,"LOCI_URI21":"http://linked.data.gov.au/dataset/asgsed3/SAL/30120","SHAPE_Leng":0.480372308047,"SHAPE_Area":0.00826440729721,"fill":"#bab0ab"},"geometry":{"type":"Point","coordinates":[150.56462,-26.697995]}},{"type":"Feature","properties":{"SAL_CODE21":"30121","SAL_NAME21":"Balberra","STE_CODE21":"3","STE_NAME21":"Queensland","AUS_CODE21":"AUS","AUS_NAME21":"Australia","AREASQKM21":58.0471,"LOCI_URI21":"http://linked.data.gov.au/dataset/asgsed3/SAL/30121","SHAPE_Leng":0.399619341151,"SHAPE_Area":0.005052567692,"fill":"#59a14f"},"geometry":{"type":"Point","coordinates":[149.148215,-21.29923]}},{"type":"Feature","properties":{"SAL_CODE21":"30122","SAL_NAME21":"Balcomba","STE_CODE21":"3","STE_NAME21":"Queensland","AUS_CODE21":"AUS","AUS_NAME21":"Australia","AREASQKM21":923.6384,"LOCI_URI21":"http://linked.data.gov.au/dataset/asgsed3/SAL/30122","SHAPE_Leng":1.80545584534,"SHAPE_Area":0.0815375662739,"fill":"#edc949"},"geometry":{"type":"Point","coordinates":[149.64452,-23.32186]}},{"type":"Feature","properties":{"SAL_CODE21":"30123","SAL_NAME21":"Bald Hills (Qld)","STE_CODE21":"3","STE_NAME21":"Queensland","AUS_CODE21":"AUS","AUS_NAME21":"Australia","AREASQKM21":12.8364,"LOCI_URI21":"http://linked.data.gov.au/dataset/asgsed3/SAL/30123","SHAPE_Leng":0.272312360292,"SHAPE_Area":0.00117030745158,"fill":"#bab0ab"},"geometry":{"type":"Point","coordinates":[153.02217000000002,-27.307454999999997]}},{"type":"Feature","properties":{"SAL_CODE21":"30124","SAL_NAME21":"Bald Knob","STE_CODE21":"3","STE_NAME21":"Queensland","AUS_CODE21":"AUS","AUS_NAME21":"Australia","AREASQKM21":20.4804,"LOCI_URI21":"http://linked.data.gov.au/dataset/asgsed3/SAL/30124","SHAPE_Leng":0.258191181372,"SHAPE_Area":0.00185875427518,"fill":"#59a14f"},"geometry":{"type":"Point","coordinates":[152.90894500000002,-26.782474999999998]}},{"type":"Feature","properties":{"SAL_CODE21":"30125","SAL_NAME21":"Balgal Beach","STE_CODE21":"3","STE_NAME21":"Queensland","AUS_CODE21":"AUS","AUS_NAME21":"Australia","AREASQKM21":13.6394,"LOCI_URI21":"http://linked.data.gov.au/dataset/asgsed3/SAL/30125","SHAPE_Leng":0.151867947554,"SHAPE_Area":0.00117052737229,"fill":"#f28e2c"},"geometry":{"type":"Point","coordinates":[146.412745,-19.035455]}},{"type":"Feature","properties":{"SAL_CODE21":"30126","SAL_NAME21":"Balgowan (Qld)","STE_CODE21":"3","STE_NAME21":"Queensland","AUS_CODE21":"AUS","AUS_NAME21":"Australia","AREASQKM21":9.8769,"LOCI_URI21":"http://linked.data.gov.au/dataset/asgsed3/SAL/30126","SHAPE_Leng":0.162609351838,"SHAPE_Area":0.000900067190261,"fill":"#9c755f"},"geometry":{"type":"Point","coordinates":[151.69429,-27.253595]}},{"type":"Feature","properties":{"SAL_CODE21":"30127","SAL_NAME21":"Ball Bay","STE_CODE21":"3","STE_NAME21":"Queensland","AUS_CODE21":"AUS","AUS_NAME21":"Australia","AREASQKM21":17.8167,"LOCI_URI21":"http://linked.data.gov.au/dataset/asgsed3/SAL/30127","SHAPE_Leng":0.246233069799,"SHAPE_Area":0.00154705458279,"fill":"#bab0ab"},"geometry":{"type":"Point","coordinates":[148.99336499999998,-20.9238]}},{"type":"Feature","properties":{"SAL_CODE21":"30128","SAL_NAME21":"Ballandean","STE_CODE21":"3","STE_NAME21":"Queensland","AUS_CODE21":"AUS","AUS_NAME21":"Australia","AREASQKM21":199.5692,"LOCI_URI21":"http://linked.data.gov.au/dataset/asgsed3/SAL/30128","SHAPE_Leng":0.93282636943,"SHAPE_Area":0.018455289652,"fill":"#edc949"},"geometry":{"type":"Point","coordinates":[151.81602,-28.86459]}},{"type":"Feature","properties":{"SAL_CODE21":"30129","SAL_NAME21":"Ballard","STE_CODE21":"3","STE_NAME21":"Queensland","AUS_CODE21":"AUS","AUS_NAME21":"Australia","AREASQKM21":16.7836,"LOCI_URI21":"http://linked.data.gov.au/dataset/asgsed3/SAL/30129","SHAPE_Leng":0.241400731708,"SHAPE_Area":0.00153281483818,"fill":"#edc949"},"geometry":{"type":"Point","coordinates":[151.98068999999998,-27.499555]}},{"type":"Feature","properties":{"SAL_CODE21":"30130","SAL_NAME21":"Ballaroo","STE_CODE21":"3","STE_NAME21":"Queensland","AUS_CODE21":"AUS","AUS_NAME21":"Australia","AREASQKM21":1786.549,"LOCI_URI21":"http://linked.data.gov.au/dataset/asgsed3/SAL/30130","SHAPE_Leng":2.45391367767,"SHAPE_Area":0.162666308183,"fill":"#e15759"},"geometry":{"type":"Point","coordinates":[148.56061499999998,-27.19067]}},{"type":"Feature","properties":{"SAL_CODE21":"30131","SAL_NAME21":"Ballogie","STE_CODE21":"3","STE_NAME21":"Queensland","AUS_CODE21":"AUS","AUS_NAME21":"Australia","AREASQKM21":130.1833,"LOCI_URI21":"http://linked.data.gov.au/dataset/asgsed3/SAL/30131","SHAPE_Leng":0.570694573326,"SHAPE_Area":0.0117709214763,"fill":"#edc949"},"geometry":{"type":"Point","coordinates":[151.518805,-26.342755]}},{"type":"Feature","properties":{"SAL_CODE21":"30132","SAL_NAME21":"Balmoral (Qld)","STE_CODE21":"3","STE_NAME21":"Queensland","AUS_CODE21":"AUS","AUS_NAME21":"Australia","AREASQKM21":1.2723,"LOCI_URI21":"http://linked.data.gov.au/dataset/asgsed3/SAL/30132","SHAPE_Leng":0.0644677462598,"SHAPE_Area":0.000116116541349,"fill":"#76b7b2"},"geometry":{"type":"Point","coordinates":[153.068825,-27.456715000000003]}},{"type":"Feature","properties":{"SAL_CODE21":"30133","SAL_NAME21":"Balmoral Ridge","STE_CODE21":"3","STE_NAME21":"Queensland","AUS_CODE21":"AUS","AUS_NAME21":"Australia","AREASQKM21":9.5351,"LOCI_URI21":"http://linked.data.gov.au/dataset/asgsed3/SAL/30133","SHAPE_Leng":0.259473789581,"SHAPE_Area":0.000865083628375,"fill":"#bab0ab"},"geometry":{"type":"Point","coordinates":[152.89156,-26.743665]}},{"type":"Feature","properties":{"SAL_CODE21":"30134","SAL_NAME21":"Balnagowan","STE_CODE21":"3","STE_NAME21":"Queensland","AUS_CODE21":"AUS","AUS_NAME21":"Australia","AREASQKM21":40.9594,"LOCI_URI21":"http://linked.data.gov.au/dataset/asgsed3/SAL/30134","SHAPE_Leng":0.307319010374,"SHAPE_Area":0.00356094012282,"fill":"#9c755f"},"geometry":{"type":"Point","coordinates":[149.01051999999999,-21.114829999999998]}},{"type":"Feature","properties":{"SAL_CODE21":"30135","SAL_NAME21":"Bamaga","STE_CODE21":"3","STE_NAME21":"Queensland","AUS_CODE21":"AUS","AUS_NAME21":"Australia","AREASQKM21":66.2289,"LOCI_URI21":"http://linked.data.gov.au/dataset/asgsed3/SAL/30135","SHAPE_Leng":0.375479888183,"SHAPE_Area":0.00547548721434,"fill":"#f28e2c"},"geometry":{"type":"Point","coordinates":[142.42673,-10.851705]}},{"type":"Feature","properties":{"SAL_CODE21":"30136","SAL_NAME21":"Bambaroo","STE_CODE21":"3","STE_NAME21":"Queensland","AUS_CODE21":"AUS","AUS_NAME21":"Australia","AREASQKM21":90.9077,"LOCI_URI21":"http://linked.data.gov.au/dataset/asgsed3/SAL/30136","SHAPE_Leng":0.490943009344,"SHAPE_Area":0.00779465465426,"fill":"#edc949"},"geometry":{"type":"Point","coordinates":[146.18503500000003,-18.88724]}},{"type":"Feature","properties":{"SAL_CODE21":"30137","SAL_NAME21":"Bamboo","STE_CODE21":"3","STE_NAME21":"Queensland","AUS_CODE21":"AUS","AUS_NAME21":"Australia","AREASQKM21":20.5271,"LOCI_URI21":"http://linked.data.gov.au/dataset/asgsed3/SAL/30137","SHAPE_Leng":0.310551668072,"SHAPE_Area":0.00173609431611,"fill":"#af7aa1"},"geometry":{"type":"Point","coordinates":[145.39237,-16.353885]}},{"type":"Feature","properties":{"SAL_CODE21":"30138","SAL_NAME21":"Bamboo Creek","STE_CODE21":"3","STE_NAME21":"Queensland","AUS_CODE21":"AUS","AUS_NAME21":"Australia","AREASQKM21":12.8413,"LOCI_URI21":"http://linked.data.gov.au/dataset/asgsed3/SAL/30138","SHAPE_Leng":0.211420346179,"SHAPE_Area":0.0010928506126,"fill":"#9c755f"},"geometry":{"type":"Point","coordinates":[145.990455,-17.55142]}},{"type":"Feature","properties":{"SAL_CODE21":"30139","SAL_NAME21":"Ban Ban","STE_CODE21":"3","STE_NAME21":"Queensland","AUS_CODE21":"AUS","AUS_NAME21":"Australia","AREASQKM21":154.7574,"LOCI_URI21":"http://linked.data.gov.au/dataset/asgsed3/SAL/30139","SHAPE_Leng":0.908206962192,"SHAPE_Area":0.0139170861226,"fill":"#edc949"},"geometry":{"type":"Point","coordinates":[151.80527,-25.698189999999997]}},{"type":"Feature","properties":{"SAL_CODE21":"30140","SAL_NAME21":"Ban Ban Springs","STE_CODE21":"3","STE_NAME21":"Queensland","AUS_CODE21":"AUS","AUS_NAME21":"Australia","AREASQKM21":20.4259,"LOCI_URI21":"http://linked.data.gov.au/dataset/asgsed3/SAL/30140","SHAPE_Leng":0.220299912927,"SHAPE_Area":0.00183656444196,"fill":"#9c755f"},"geometry":{"type":"Point","coordinates":[151.823295,-25.673005]}},{"type":"Feature","properties":{"SAL_CODE21":"30141","SAL_NAME21":"Banana","STE_CODE21":"3","STE_NAME21":"Queensland","AUS_CODE21":"AUS","AUS_NAME21":"Australia","AREASQKM21":939.6651,"LOCI_URI21":"http://linked.data.gov.au/dataset/asgsed3/SAL/30141","SHAPE_Leng":1.74340557009,"SHAPE_Area":0.0836928305212,"fill":"#9c755f"},"geometry":{"type":"Point","coordinates":[150.19182,-24.53002]}},{"type":"Feature","properties":{"SAL_CODE21":"30142","SAL_NAME21":"Bancroft","STE_CODE21":"3","STE_NAME21":"Queensland","AUS_CODE21":"AUS","AUS_NAME21":"Australia","AREASQKM21":215.576,"LOCI_URI21":"http://linked.data.gov.au/dataset/asgsed3/SAL/30142","SHAPE_Leng":0.628565347168,"SHAPE_Area":0.0192459943245,"fill":"#edc949"},"geometry":{"type":"Point","coordinates":[151.27981,-24.79009]}},{"type":"Feature","properties":{"SAL_CODE21":"30143","SAL_NAME21":"Bangalee (Qld)","STE_CODE21":"3","STE_NAME21":"Queensland","AUS_CODE21":"AUS","AUS_NAME21":"Australia","AREASQKM21":0.1394,"LOCI_URI21":"http://linked.data.gov.au/dataset/asgsed3/SAL/30143","SHAPE_Leng":0.0164159955718,"SHAPE_Area":0.0000122856558778,"fill":"#e15759"},"geometry":{"type":"Point","coordinates":[150.763895,-23.074665]}},{"type":"Feature","properties":{"SAL_CODE21":"30144","SAL_NAME21":"Banks Creek","STE_CODE21":"3","STE_NAME21":"Queensland","AUS_CODE21":"AUS","AUS_NAME21":"Australia","AREASQKM21":54.4183,"LOCI_URI21":"http://linked.data.gov.au/dataset/asgsed3/SAL/30144","SHAPE_Leng":0.396386335476,"SHAPE_Area":0.0049659468501,"fill":"#f28e2c"},"geometry":{"type":"Point","coordinates":[152.717605,-27.401295]}},{"type":"Feature","properties":{"SAL_CODE21":"30145","SAL_NAME21":"Banks Pocket","STE_CODE21":"3","STE_NAME21":"Queensland","AUS_CODE21":"AUS","AUS_NAME21":"Australia","AREASQKM21":0.8728,"LOCI_URI21":"http://linked.data.gov.au/dataset/asgsed3/SAL/30145","SHAPE_Leng":0.039976175423,"SHAPE_Area":0.0000787945591984,"fill":"#e15759"},"geometry":{"type":"Point","coordinates":[152.67118499999998,-26.151980000000002]}},{"type":"Feature","properties":{"SAL_CODE21":"30146","SAL_NAME21":"Banksia Beach","STE_CODE21":"3","STE_NAME21":"Queensland","AUS_CODE21":"AUS","AUS_NAME21":"Australia","AREASQKM21":6.0489,"LOCI_URI21":"http://linked.data.gov.au/dataset/asgsed3/SAL/30146","SHAPE_Leng":0.127012125199,"SHAPE_Area":0.000550152468613,"fill":"#bab0ab"},"geometry":{"type":"Point","coordinates":[153.14417,-27.03934]}},{"type":"Feature","properties":{"SAL_CODE21":"30147","SAL_NAME21":"Bannockburn (Qld)","STE_CODE21":"3","STE_NAME21":"Queensland","AUS_CODE21":"AUS","AUS_NAME21":"Australia","AREASQKM21":1.5851,"LOCI_URI21":"http://linked.data.gov.au/dataset/asgsed3/SAL/30147","SHAPE_Leng":0.0451587511162,"SHAPE_Area":0.000145088315401,"fill":"#59a14f"},"geometry":{"type":"Point","coordinates":[153.192135,-27.759925]}},{"type":"Feature","properties":{"SAL_CODE21":"30148","SAL_NAME21":"Banyo","STE_CODE21":"3","STE_NAME21":"Queensland","AUS_CODE21":"AUS","AUS_NAME21":"Australia","AREASQKM21":4.7447,"LOCI_URI21":"http://linked.data.gov.au/dataset/asgsed3/SAL/30148","SHAPE_Leng":0.138495149421,"SHAPE_Area":0.00043284591759,"fill":"#bab0ab"},"geometry":{"type":"Point","coordinates":[153.08087,-27.378655]}},{"type":"Feature","properties":{"SAL_CODE21":"30149","SAL_NAME21":"Bapaume","STE_CODE21":"3","STE_NAME21":"Queensland","AUS_CODE21":"AUS","AUS_NAME21":"Australia","AREASQKM21":13.4884,"LOCI_URI21":"http://linked.data.gov.au/dataset/asgsed3/SAL/30149","SHAPE_Leng":0.186982733312,"SHAPE_Area":0.00124399320104,"fill":"#76b7b2"},"geometry":{"type":"Point","coordinates":[151.84129000000001,-28.576144999999997]}},{"type":"Feature","properties":{"SAL_CODE21":"30150","SAL_NAME21":"Barakula","STE_CODE21":"3","STE_NAME21":"Queensland","AUS_CODE21":"AUS","AUS_NAME21":"Australia","AREASQKM21":1641.9543,"LOCI_URI21":"http://linked.data.gov.au/dataset/asgsed3/SAL/30150","SHAPE_Leng":1.96715870725,"SHAPE_Area":0.148451780447,"fill":"#edc949"},"geometry":{"type":"Point","coordinates":[150.59785499999998,-26.331069999999997]}},{"type":"Feature","properties":{"SAL_CODE21":"30151","SAL_NAME21":"Baralaba","STE_CODE21":"3","STE_NAME21":"Queensland","AUS_CODE21":"AUS","AUS_NAME21":"Australia","AREASQKM21":373.3074,"LOCI_URI21":"http://linked.data.gov.au/dataset/asgsed3/SAL/30151","SHAPE_Leng":1.0714142464,"SHAPE_Area":0.0332039962617,"fill":"#4e79a7"},"geometry":{"type":"Point","coordinates":[149.92100499999998,-24.28773]}},{"type":"Feature","properties":{"SAL_CODE21":"30152","SAL_NAME21":"Barambah","STE_CODE21":"3","STE_NAME21":"Queensland","AUS_CODE21":"AUS","AUS_NAME21":"Australia","AREASQKM21":159.4412,"LOCI_URI21":"http://linked.data.gov.au/dataset/asgsed3/SAL/30152","SHAPE_Leng":0.774539992003,"SHAPE_Area":0.0144134712725,"fill":"#f28e2c"},"geometry":{"type":"Point","coordinates":[152.10599,-26.313725]}},{"type":"Feature","properties":{"SAL_CODE21":"30153","SAL_NAME21":"Barcaldine","STE_CODE21":"3","STE_NAME21":"Queensland","AUS_CODE21":"AUS","AUS_NAME21":"Australia","AREASQKM21":10793.7554,"LOCI_URI21":"http://linked.data.gov.au/dataset/asgsed3/SAL/30153","SHAPE_Leng":5.09231059887,"SHAPE_Area":0.955014860685,"fill":"#bab0ab"},"geometry":{"type":"Point","coordinates":[145.347465,-23.570345000000003]}},{"type":"Feature","properties":{"SAL_CODE21":"30154","SAL_NAME21":"Bardon","STE_CODE21":"3","STE_NAME21":"Queensland","AUS_CODE21":"AUS","AUS_NAME21":"Australia","AREASQKM21":4.9893,"LOCI_URI21":"http://linked.data.gov.au/dataset/asgsed3/SAL/30154","SHAPE_Leng":0.151280051019,"SHAPE_Area":0.000455525583747,"fill":"#59a14f"},"geometry":{"type":"Point","coordinates":[152.976295,-27.45973]}},{"type":"Feature","properties":{"SAL_CODE21":"30155","SAL_NAME21":"Baree","STE_CODE21":"3","STE_NAME21":"Queensland","AUS_CODE21":"AUS","AUS_NAME21":"Australia","AREASQKM21":1.4433,"LOCI_URI21":"http://linked.data.gov.au/dataset/asgsed3/SAL/30155","SHAPE_Leng":0.068121783459,"SHAPE_Area":0.000127699158719,"fill":"#f28e2c"},"geometry":{"type":"Point","coordinates":[150.3894,-23.620165]}},{"type":"Feature","properties":{"SAL_CODE21":"30156","SAL_NAME21":"Barellan Point","STE_CODE21":"3","STE_NAME21":"Queensland","AUS_CODE21":"AUS","AUS_NAME21":"Australia","AREASQKM21":3.6601,"LOCI_URI21":"http://linked.data.gov.au/dataset/asgsed3/SAL/30156","SHAPE_Leng":0.0851284613672,"SHAPE_Area":0.000334474803726,"fill":"#76b7b2"},"geometry":{"type":"Point","coordinates":[152.84373,-27.571445]}},{"type":"Feature","properties":{"SAL_CODE21":"30157","SAL_NAME21":"Bargara","STE_CODE21":"3","STE_NAME21":"Queensland","AUS_CODE21":"AUS","AUS_NAME21":"Australia","AREASQKM21":9.3709,"LOCI_URI21":"http://linked.data.gov.au/dataset/asgsed3/SAL/30157","SHAPE_Leng":0.174530816169,"SHAPE_Area":0.000836828842068,"fill":"#af7aa1"},"geometry":{"type":"Point","coordinates":[152.46151500000002,-24.82613]}},{"type":"Feature","properties":{"SAL_CODE21":"30158","SAL_NAME21":"Bargunyah","STE_CODE21":"3","STE_NAME21":"Queensland","AUS_CODE21":"AUS","AUS_NAME21":"Australia","AREASQKM21":3541.9788,"LOCI_URI21":"http://linked.data.gov.au/dataset/asgsed3/SAL/30158","SHAPE_Leng":2.7371923137,"SHAPE_Area":0.322716547121,"fill":"#bab0ab"},"geometry":{"type":"Point","coordinates":[147.44973499999998,-27.21883]}},{"type":"Feature","properties":{"SAL_CODE21":"30159","SAL_NAME21":"Baringa","STE_CODE21":"3","STE_NAME21":"Queensland","AUS_CODE21":"AUS","AUS_NAME21":"Australia","AREASQKM21":2.6675,"LOCI_URI21":"http://linked.data.gov.au/dataset/asgsed3/SAL/30159","SHAPE_Leng":0.0883993162495,"SHAPE_Area":0.000242142298296,"fill":"#4e79a7"},"geometry":{"type":"Point","coordinates":[153.07704,-26.80793]}},{"type":"Feature","properties":{"SAL_CODE21":"30160","SAL_NAME21":"Barker Creek Flat","STE_CODE21":"3","STE_NAME21":"Queensland","AUS_CODE21":"AUS","AUS_NAME21":"Australia","AREASQKM21":27.6955,"LOCI_URI21":"http://linked.data.gov.au/dataset/asgsed3/SAL/30160","SHAPE_Leng":0.331347845844,"SHAPE_Area":0.00251064406398,"fill":"#76b7b2"},"geometry":{"type":"Point","coordinates":[151.94648999999998,-26.648145]}},{"type":"Feature","properties":{"SAL_CODE21":"30161","SAL_NAME21":"Barkly (Qld)","STE_CODE21":"3","STE_NAME21":"Queensland","AUS_CODE21":"AUS","AUS_NAME21":"Australia","AREASQKM21":11800.5381,"LOCI_URI21":"http://linked.data.gov.au/dataset/asgsed3/SAL/30161","SHAPE_Leng":4.91450901348,"SHAPE_Area":1.02250444242,"fill":"#edc949"},"geometry":{"type":"Point","coordinates":[138.508265,-20.634085]}},{"type":"Feature","properties":{"SAL_CODE21":"30162","SAL_NAME21":"Barlil","STE_CODE21":"3","STE_NAME21":"Queensland","AUS_CODE21":"AUS","AUS_NAME21":"Australia","AREASQKM21":12.6272,"LOCI_URI21":"http://linked.data.gov.au/dataset/asgsed3/SAL/30162","SHAPE_Leng":0.183541203279,"SHAPE_Area":0.00114036037888,"fill":"#edc949"},"geometry":{"type":"Point","coordinates":[151.88905,-26.202455]}},{"type":"Feature","properties":{"SAL_CODE21":"30163","SAL_NAME21":"Barlows Hill","STE_CODE21":"3","STE_NAME21":"Queensland","AUS_CODE21":"AUS","AUS_NAME21":"Australia","AREASQKM21":0.9455,"LOCI_URI21":"http://linked.data.gov.au/dataset/asgsed3/SAL/30163","SHAPE_Leng":0.0432095599703,"SHAPE_Area":0.0000833469469492,"fill":"#9c755f"},"geometry":{"type":"Point","coordinates":[150.74156,-23.10797]}},{"type":"Feature","properties":{"SAL_CODE21":"30164","SAL_NAME21":"Barlyne","STE_CODE21":"3","STE_NAME21":"Queensland","AUS_CODE21":"AUS","AUS_NAME21":"Australia","AREASQKM21":35.7674,"LOCI_URI21":"http://linked.data.gov.au/dataset/asgsed3/SAL/30164","SHAPE_Leng":0.310651419753,"SHAPE_Area":0.00321768492195,"fill":"#ff9da7"},"geometry":{"type":"Point","coordinates":[151.64493,-25.737855]}},{"type":"Feature","properties":{"SAL_CODE21":"30165","SAL_NAME21":"Barmaryee","STE_CODE21":"3","STE_NAME21":"Queensland","AUS_CODE21":"AUS","AUS_NAME21":"Australia","AREASQKM21":12.6631,"LOCI_URI21":"http://linked.data.gov.au/dataset/asgsed3/SAL/30165","SHAPE_Leng":0.190237918947,"SHAPE_Area":0.00111641415485,"fill":"#f28e2c"},"geometry":{"type":"Point","coordinates":[150.692325,-23.143535]}},{"type":"Feature","properties":{"SAL_CODE21":"30166","SAL_NAME21":"Barmoya","STE_CODE21":"3","STE_NAME21":"Queensland","AUS_CODE21":"AUS","AUS_NAME21":"Australia","AREASQKM21":77.1534,"LOCI_URI21":"http://linked.data.gov.au/dataset/asgsed3/SAL/30166","SHAPE_Leng":0.407783272847,"SHAPE_Area":0.00680159683331,"fill":"#f28e2c"},"geometry":{"type":"Point","coordinates":[150.540315,-23.126365]}},{"type":"Feature","properties":{"SAL_CODE21":"30167","SAL_NAME21":"Barnard","STE_CODE21":"3","STE_NAME21":"Queensland","AUS_CODE21":"AUS","AUS_NAME21":"Australia","AREASQKM21":668.7451,"LOCI_URI21":"http://linked.data.gov.au/dataset/asgsed3/SAL/30167","SHAPE_Leng":1.28697070182,"SHAPE_Area":0.0593343209406,"fill":"#ff9da7"},"geometry":{"type":"Point","coordinates":[149.685305,-24.0064]}},{"type":"Feature","properties":{"SAL_CODE21":"30168","SAL_NAME21":"Barney Point","STE_CODE21":"3","STE_NAME21":"Queensland","AUS_CODE21":"AUS","AUS_NAME21":"Australia","AREASQKM21":3.5021,"LOCI_URI21":"http://linked.data.gov.au/dataset/asgsed3/SAL/30168","SHAPE_Leng":0.0981340324944,"SHAPE_Area":0.000310369770774,"fill":"#af7aa1"},"geometry":{"type":"Point","coordinates":[151.26558,-23.846105]}},{"type":"Feature","properties":{"SAL_CODE21":"30169","SAL_NAME21":"Barney View","STE_CODE21":"3","STE_NAME21":"Queensland","AUS_CODE21":"AUS","AUS_NAME21":"Australia","AREASQKM21":36.7307,"LOCI_URI21":"http://linked.data.gov.au/dataset/asgsed3/SAL/30169","SHAPE_Leng":0.395374007473,"SHAPE_Area":0.00337682640744,"fill":"#76b7b2"},"geometry":{"type":"Point","coordinates":[152.764315,-28.23754]}},{"type":"Feature","properties":{"SAL_CODE21":"30170","SAL_NAME21":"Baroondah","STE_CODE21":"3","STE_NAME21":"Queensland","AUS_CODE21":"AUS","AUS_NAME21":"Australia","AREASQKM21":1329.3399,"LOCI_URI21":"http://linked.data.gov.au/dataset/asgsed3/SAL/30170","SHAPE_Leng":2.36447106362,"SHAPE_Area":0.119524619194,"fill":"#ff9da7"},"geometry":{"type":"Point","coordinates":[149.11731500000002,-25.66623]}},{"type":"Feature","properties":{"SAL_CODE21":"30171","SAL_NAME21":"Barramornie","STE_CODE21":"3","STE_NAME21":"Queensland","AUS_CODE21":"AUS","AUS_NAME21":"Australia","AREASQKM21":143.8911,"LOCI_URI21":"http://linked.data.gov.au/dataset/asgsed3/SAL/30171","SHAPE_Leng":0.491799266559,"SHAPE_Area":0.0130915375892,"fill":"#9c755f"},"geometry":{"type":"Point","coordinates":[150.094565,-27.072519999999997]}},{"type":"Feature","properties":{"SAL_CODE21":"30172","SAL_NAME21":"Barratta (Qld)","STE_CODE21":"3","STE_NAME21":"Queensland","AUS_CODE21":"AUS","AUS_NAME21":"Australia","AREASQKM21":236.8432,"LOCI_URI21":"http://linked.data.gov.au/dataset/asgsed3/SAL/30172","SHAPE_Leng":0.735609334993,"SHAPE_Area":0.0203901403713,"fill":"#bab0ab"},"geometry":{"type":"Point","coordinates":[147.22498000000002,-19.563615]}},{"type":"Feature","properties":{"SAL_CODE21":"30173","SAL_NAME21":"Barrine","STE_CODE21":"3","STE_NAME21":"Queensland","AUS_CODE21":"AUS","AUS_NAME21":"Australia","AREASQKM21":28.3524,"LOCI_URI21":"http://linked.data.gov.au/dataset/asgsed3/SAL/30173","SHAPE_Leng":0.391185029234,"SHAPE_Area":0.00240875735546,"fill":"#e15759"},"geometry":{"type":"Point","coordinates":[145.617185,-17.226445]}},{"type":"Feature","properties":{"SAL_CODE21":"30174","SAL_NAME21":"Barringha","STE_CODE21":"3","STE_NAME21":"Queensland","AUS_CODE21":"AUS","AUS_NAME21":"Australia","AREASQKM21":121.1681,"LOCI_URI21":"http://linked.data.gov.au/dataset/asgsed3/SAL/30174","SHAPE_Leng":0.654345987736,"SHAPE_Area":0.010429548027,"fill":"#76b7b2"},"geometry":{"type":"Point","coordinates":[146.815845,-19.527614999999997]}},{"type":"Feature","properties":{"SAL_CODE21":"30175","SAL_NAME21":"Barringun","STE_CODE21":"3","STE_NAME21":"Queensland","AUS_CODE21":"AUS","AUS_NAME21":"Australia","AREASQKM21":932.798,"LOCI_URI21":"http://linked.data.gov.au/dataset/asgsed3/SAL/30175","SHAPE_Leng":1.48291512858,"SHAPE_Area":0.0862608692422,"fill":"#9c755f"},"geometry":{"type":"Point","coordinates":[145.814305,-28.843535]}},{"type":"Feature","properties":{"SAL_CODE21":"30176","SAL_NAME21":"Barron","STE_CODE21":"3","STE_NAME21":"Queensland","AUS_CODE21":"AUS","AUS_NAME21":"Australia","AREASQKM21":11.7532,"LOCI_URI21":"http://linked.data.gov.au/dataset/asgsed3/SAL/30176","SHAPE_Leng":0.161256784725,"SHAPE_Area":0.000996632903121,"fill":"#f28e2c"},"geometry":{"type":"Point","coordinates":[145.71101,-16.865589999999997]}},{"type":"Feature","properties":{"SAL_CODE21":"30177","SAL_NAME21":"Barron Gorge","STE_CODE21":"3","STE_NAME21":"Queensland","AUS_CODE21":"AUS","AUS_NAME21":"Australia","AREASQKM21":13.29,"LOCI_URI21":"http://linked.data.gov.au/dataset/asgsed3/SAL/30177","SHAPE_Leng":0.261383272235,"SHAPE_Area":0.00112702815474,"fill":"#ff9da7"},"geometry":{"type":"Point","coordinates":[145.66488,-16.88184]}},{"type":"Feature","properties":{"SAL_CODE21":"30178","SAL_NAME21":"Bartle Frere","STE_CODE21":"3","STE_NAME21":"Queensland","AUS_CODE21":"AUS","AUS_NAME21":"Australia","AREASQKM21":16.5935,"LOCI_URI21":"http://linked.data.gov.au/dataset/asgsed3/SAL/30178","SHAPE_Leng":0.22065906149,"SHAPE_Area":0.00141132034906,"fill":"#4e79a7"},"geometry":{"type":"Point","coordinates":[145.88180499999999,-17.439815]}},{"type":"Feature","properties":{"SAL_CODE21":"30179","SAL_NAME21":"Barwidgi","STE_CODE21":"3","STE_NAME21":"Queensland","AUS_CODE21":"AUS","AUS_NAME21":"Australia","AREASQKM21":1137.2443,"LOCI_URI21":"http://linked.data.gov.au/dataset/asgsed3/SAL/30179","SHAPE_Leng":1.4998730521,"SHAPE_Area":0.0968427388026,"fill":"#76b7b2"},"geometry":{"type":"Point","coordinates":[144.64997,-17.663615]}},{"type":"Feature","properties":{"SAL_CODE21":"30180","SAL_NAME21":"Basalt (Qld)","STE_CODE21":"3","STE_NAME21":"Queensland","AUS_CODE21":"AUS","AUS_NAME21":"Australia","AREASQKM21":14855.0084,"LOCI_URI21":"http://linked.data.gov.au/dataset/asgsed3/SAL/30180","SHAPE_Leng":6.84355338713,"SHAPE_Area":1.28033378563,"fill":"#59a14f"},"geometry":{"type":"Point","coordinates":[145.25599,-19.74019]}},{"type":"Feature","properties":{"SAL_CODE21":"30181","SAL_NAME21":"Basilisk","STE_CODE21":"3","STE_NAME21":"Queensland","AUS_CODE21":"AUS","AUS_NAME21":"Australia","AREASQKM21":34.4909,"LOCI_URI21":"http://linked.data.gov.au/dataset/asgsed3/SAL/30181","SHAPE_Leng":0.48871589062,"SHAPE_Area":0.00293721719608,"fill":"#edc949"},"geometry":{"type":"Point","coordinates":[145.98066,-17.669305]}},{"type":"Feature","properties":{"SAL_CODE21":"30182","SAL_NAME21":"Basin Pocket","STE_CODE21":"3","STE_NAME21":"Queensland","AUS_CODE21":"AUS","AUS_NAME21":"Australia","AREASQKM21":0.6416,"LOCI_URI21":"http://linked.data.gov.au/dataset/asgsed3/SAL/30182","SHAPE_Leng":0.0303667241227,"SHAPE_Area":0.0000586609124665,"fill":"#4e79a7"},"geometry":{"type":"Point","coordinates":[152.770325,-27.60146]}},{"type":"Feature","properties":{"SAL_CODE21":"30183","SAL_NAME21":"Battery Hill","STE_CODE21":"3","STE_NAME21":"Queensland","AUS_CODE21":"AUS","AUS_NAME21":"Australia","AREASQKM21":0.9276,"LOCI_URI21":"http://linked.data.gov.au/dataset/asgsed3/SAL/30183","SHAPE_Leng":0.0435977683799,"SHAPE_Area":0.0000841951491359,"fill":"#edc949"},"geometry":{"type":"Point","coordinates":[153.12923999999998,-26.779015]}},{"type":"Feature","properties":{"SAL_CODE21":"30184","SAL_NAME21":"Bauhinia","STE_CODE21":"3","STE_NAME21":"Queensland","AUS_CODE21":"AUS","AUS_NAME21":"Australia","AREASQKM21":227.13,"LOCI_URI21":"http://linked.data.gov.au/dataset/asgsed3/SAL/30184","SHAPE_Leng":0.719162028232,"SHAPE_Area":0.0202418145672,"fill":"#4e79a7"},"geometry":{"type":"Point","coordinates":[149.337985,-24.5594]}},{"type":"Feature","properties":{"SAL_CODE21":"30185","SAL_NAME21":"Bauple","STE_CODE21":"3","STE_NAME21":"Queensland","AUS_CODE21":"AUS","AUS_NAME21":"Australia","AREASQKM21":82.0227,"LOCI_URI21":"http://linked.data.gov.au/dataset/asgsed3/SAL/30185","SHAPE_Leng":0.462778710159,"SHAPE_Area":0.00738354841205,"fill":"#4e79a7"},"geometry":{"type":"Point","coordinates":[152.61352,-25.816895000000002]}},{"type":"Feature","properties":{"SAL_CODE21":"30186","SAL_NAME21":"Bauple Forest","STE_CODE21":"3","STE_NAME21":"Queensland","AUS_CODE21":"AUS","AUS_NAME21":"Australia","AREASQKM21":103.5943,"LOCI_URI21":"http://linked.data.gov.au/dataset/asgsed3/SAL/30186","SHAPE_Leng":0.590060572132,"SHAPE_Area":0.00933003597354,"fill":"#59a14f"},"geometry":{"type":"Point","coordinates":[152.68454,-25.87546]}},{"type":"Feature","properties":{"SAL_CODE21":"30187","SAL_NAME21":"Bayrick","STE_CODE21":"3","STE_NAME21":"Queensland","AUS_CODE21":"AUS","AUS_NAME21":"Australia","AREASQKM21":916.9193,"LOCI_URI21":"http://linked.data.gov.au/dataset/asgsed3/SAL/30187","SHAPE_Leng":1.32358858516,"SHAPE_Area":0.0822621546189,"fill":"#f28e2c"},"geometry":{"type":"Point","coordinates":[146.07525,-25.391755]}},{"type":"Feature","properties":{"SAL_CODE21":"30188","SAL_NAME21":"Bayview Heights","STE_CODE21":"3","STE_NAME21":"Queensland","AUS_CODE21":"AUS","AUS_NAME21":"Australia","AREASQKM21":4.32,"LOCI_URI21":"http://linked.data.gov.au/dataset/asgsed3/SAL/30188","SHAPE_Leng":0.0893894680604,"SHAPE_Area":0.000366491475926,"fill":"#edc949"},"geometry":{"type":"Point","coordinates":[145.72584999999998,-16.962935]}},{"type":"Feature","properties":{"SAL_CODE21":"30189","SAL_NAME21":"Beach Holm","STE_CODE21":"3","STE_NAME21":"Queensland","AUS_CODE21":"AUS","AUS_NAME21":"Australia","AREASQKM21":12.4595,"LOCI_URI21":"http://linked.data.gov.au/dataset/asgsed3/SAL/30189","SHAPE_Leng":0.208044716877,"SHAPE_Area":0.00107031284062,"fill":"#af7aa1"},"geometry":{"type":"Point","coordinates":[146.647875,-19.205195]}},{"type":"Feature","properties":{"SAL_CODE21":"30190","SAL_NAME21":"Beachmere","STE_CODE21":"3","STE_NAME21":"Queensland","AUS_CODE21":"AUS","AUS_NAME21":"Australia","AREASQKM21":31.874,"LOCI_URI21":"http://linked.data.gov.au/dataset/asgsed3/SAL/30190","SHAPE_Leng":0.352656690573,"SHAPE_Area":0.00290092785037,"fill":"#ff9da7"},"geometry":{"type":"Point","coordinates":[153.046505,-27.115865]}},{"type":"Feature","properties":{"SAL_CODE21":"30191","SAL_NAME21":"Beaconsfield (Qld)","STE_CODE21":"3","STE_NAME21":"Queensland","AUS_CODE21":"AUS","AUS_NAME21":"Australia","AREASQKM21":6.953,"LOCI_URI21":"http://linked.data.gov.au/dataset/asgsed3/SAL/30191","SHAPE_Leng":0.141396133669,"SHAPE_Area":0.000604381576439,"fill":"#ff9da7"},"geometry":{"type":"Point","coordinates":[149.16505999999998,-21.08974]}},{"type":"Feature","properties":{"SAL_CODE21":"30192","SAL_NAME21":"Beatrice","STE_CODE21":"3","STE_NAME21":"Queensland","AUS_CODE21":"AUS","AUS_NAME21":"Australia","AREASQKM21":48.1605,"LOCI_URI21":"http://linked.data.gov.au/dataset/asgsed3/SAL/30192","SHAPE_Leng":0.380872522494,"SHAPE_Area":0.00409877349367,"fill":"#76b7b2"},"geometry":{"type":"Point","coordinates":[145.587015,-17.560879999999997]}},{"type":"Feature","properties":{"SAL_CODE21":"30193","SAL_NAME21":"Beaudesert","STE_CODE21":"3","STE_NAME21":"Queensland","AUS_CODE21":"AUS","AUS_NAME21":"Australia","AREASQKM21":43.6221,"LOCI_URI21":"http://linked.data.gov.au/dataset/asgsed3/SAL/30193","SHAPE_Leng":0.416817085305,"SHAPE_Area":0.0040014102281,"fill":"#ff9da7"},"geometry":{"type":"Point","coordinates":[152.995545,-27.989005]}},{"type":"Feature","properties":{"SAL_CODE21":"30194","SAL_NAME21":"Beaver Rock","STE_CODE21":"3","STE_NAME21":"Queensland","AUS_CODE21":"AUS","AUS_NAME21":"Australia","AREASQKM21":52.2174,"LOCI_URI21":"http://linked.data.gov.au/dataset/asgsed3/SAL/30194","SHAPE_Leng":0.459246956946,"SHAPE_Area":0.00468917806392,"fill":"#59a14f"},"geometry":{"type":"Point","coordinates":[152.825965,-25.5199]}},{"type":"Feature","properties":{"SAL_CODE21":"30195","SAL_NAME21":"Bedourie","STE_CODE21":"3","STE_NAME21":"Queensland","AUS_CODE21":"AUS","AUS_NAME21":"Australia","AREASQKM21":36117.3811,"LOCI_URI21":"http://linked.data.gov.au/dataset/asgsed3/SAL/30195","SHAPE_Leng":10.2727990792,"SHAPE_Area":3.21466812328,"fill":"#59a14f"},"geometry":{"type":"Point","coordinates":[139.441015,-24.43108]}},{"type":"Feature","properties":{"SAL_CODE21":"30196","SAL_NAME21":"Beebo","STE_CODE21":"3","STE_NAME21":"Queensland","AUS_CODE21":"AUS","AUS_NAME21":"Australia","AREASQKM21":232.5833,"LOCI_URI21":"http://linked.data.gov.au/dataset/asgsed3/SAL/30196","SHAPE_Leng":0.698278502442,"SHAPE_Area":0.0214713616271,"fill":"#af7aa1"},"geometry":{"type":"Point","coordinates":[150.98693500000002,-28.68096]}},{"type":"Feature","properties":{"SAL_CODE21":"30197","SAL_NAME21":"Beecher","STE_CODE21":"3","STE_NAME21":"Queensland","AUS_CODE21":"AUS","AUS_NAME21":"Australia","AREASQKM21":19.1947,"LOCI_URI21":"http://linked.data.gov.au/dataset/asgsed3/SAL/30197","SHAPE_Leng":0.23199299013,"SHAPE_Area":0.00170203297741,"fill":"#af7aa1"},"geometry":{"type":"Point","coordinates":[151.20104,-23.908185]}},{"type":"Feature","properties":{"SAL_CODE21":"30198","SAL_NAME21":"Beechmont","STE_CODE21":"3","STE_NAME21":"Queensland","AUS_CODE21":"AUS","AUS_NAME21":"Australia","AREASQKM21":34.4415,"LOCI_URI21":"http://linked.data.gov.au/dataset/asgsed3/SAL/30198","SHAPE_Leng":0.411447975745,"SHAPE_Area":0.0031630795842,"fill":"#bab0ab"},"geometry":{"type":"Point","coordinates":[153.19326,-28.12567]}},{"type":"Feature","properties":{"SAL_CODE21":"30199","SAL_NAME21":"Beelbee","STE_CODE21":"3","STE_NAME21":"Queensland","AUS_CODE21":"AUS","AUS_NAME21":"Australia","AREASQKM21":88.4635,"LOCI_URI21":"http://linked.data.gov.au/dataset/asgsed3/SAL/30199","SHAPE_Leng":0.460256470617,"SHAPE_Area":0.00805284822062,"fill":"#bab0ab"},"geometry":{"type":"Point","coordinates":[150.821215,-27.1332]}},{"type":"Feature","properties":{"SAL_CODE21":"30200","SAL_NAME21":"Beelbi Creek","STE_CODE21":"3","STE_NAME21":"Queensland","AUS_CODE21":"AUS","AUS_NAME21":"Australia","AREASQKM21":24.6943,"LOCI_URI21":"http://linked.data.gov.au/dataset/asgsed3/SAL/30200","SHAPE_Leng":0.23472989396,"SHAPE_Area":0.00221354355379,"fill":"#f28e2c"},"geometry":{"type":"Point","coordinates":[152.64118000000002,-25.295360000000002]}},{"type":"Feature","properties":{"SAL_CODE21":"30201","SAL_NAME21":"Beenaam Valley","STE_CODE21":"3","STE_NAME21":"Queensland","AUS_CODE21":"AUS","AUS_NAME21":"Australia","AREASQKM21":7.7883,"LOCI_URI21":"http://linked.data.gov.au/dataset/asgsed3/SAL/30201","SHAPE_Leng":0.122934424137,"SHAPE_Area":0.000703290504404,"fill":"#edc949"},"geometry":{"type":"Point","coordinates":[152.815155,-26.191665]}},{"type":"Feature","properties":{"SAL_CODE21":"30202","SAL_NAME21":"Beenleigh","STE_CODE21":"3","STE_NAME21":"Queensland","AUS_CODE21":"AUS","AUS_NAME21":"Australia","AREASQKM21":7.7028,"LOCI_URI21":"http://linked.data.gov.au/dataset/asgsed3/SAL/30202","SHAPE_Leng":0.156441269359,"SHAPE_Area":0.000704795846845,"fill":"#bab0ab"},"geometry":{"type":"Point","coordinates":[153.196945,-27.712850000000003]}},{"type":"Feature","properties":{"SAL_CODE21":"30203","SAL_NAME21":"Beerburrum","STE_CODE21":"3","STE_NAME21":"Queensland","AUS_CODE21":"AUS","AUS_NAME21":"Australia","AREASQKM21":80.7742,"LOCI_URI21":"http://linked.data.gov.au/dataset/asgsed3/SAL/30203","SHAPE_Leng":0.722008516526,"SHAPE_Area":0.00734140013164,"fill":"#e15759"},"geometry":{"type":"Point","coordinates":[152.968955,-26.952155]}},{"type":"Feature","properties":{"SAL_CODE21":"30204","SAL_NAME21":"Beeron","STE_CODE21":"3","STE_NAME21":"Queensland","AUS_CODE21":"AUS","AUS_NAME21":"Australia","AREASQKM21":402.2207,"LOCI_URI21":"http://linked.data.gov.au/dataset/asgsed3/SAL/30204","SHAPE_Leng":1.1090254686,"SHAPE_Area":0.0362303705885,"fill":"#76b7b2"},"geometry":{"type":"Point","coordinates":[151.267805,-25.91355]}},{"type":"Feature","properties":{"SAL_CODE21":"30205","SAL_NAME21":"Beerwah","STE_CODE21":"3","STE_NAME21":"Queensland","AUS_CODE21":"AUS","AUS_NAME21":"Australia","AREASQKM21":58.6101,"LOCI_URI21":"http://linked.data.gov.au/dataset/asgsed3/SAL/30205","SHAPE_Leng":0.454010324843,"SHAPE_Area":0.00532268044541,"fill":"#76b7b2"},"geometry":{"type":"Point","coordinates":[152.95959499999998,-26.857215]}},{"type":"Feature","properties":{"SAL_CODE21":"30206","SAL_NAME21":"Begonia","STE_CODE21":"3","STE_NAME21":"Queensland","AUS_CODE21":"AUS","AUS_NAME21":"Australia","AREASQKM21":1670.0968,"LOCI_URI21":"http://linked.data.gov.au/dataset/asgsed3/SAL/30206","SHAPE_Leng":2.34985201428,"SHAPE_Area":0.152474792235,"fill":"#9c755f"},"geometry":{"type":"Point","coordinates":[148.28035,-27.440365]}},{"type":"Feature","properties":{"SAL_CODE21":"30207","SAL_NAME21":"Beilba","STE_CODE21":"3","STE_NAME21":"Queensland","AUS_CODE21":"AUS","AUS_NAME21":"Australia","AREASQKM21":1074.9111,"LOCI_URI21":"http://linked.data.gov.au/dataset/asgsed3/SAL/30207","SHAPE_Leng":2.02502253296,"SHAPE_Area":0.0966231610987,"fill":"#e15759"},"geometry":{"type":"Point","coordinates":[148.86930999999998,-25.644095]}},{"type":"Feature","properties":{"SAL_CODE21":"30208","SAL_NAME21":"Belcong","STE_CODE21":"3","STE_NAME21":"Queensland","AUS_CODE21":"AUS","AUS_NAME21":"Australia","AREASQKM21":391.9573,"LOCI_URI21":"http://linked.data.gov.au/dataset/asgsed3/SAL/30208","SHAPE_Leng":0.919513914446,"SHAPE_Area":0.0345298375194,"fill":"#76b7b2"},"geometry":{"type":"Point","coordinates":[148.190175,-23.022260000000003]}},{"type":"Feature","properties":{"SAL_CODE21":"30209","SAL_NAME21":"Belgian Gardens","STE_CODE21":"3","STE_NAME21":"Queensland","AUS_CODE21":"AUS","AUS_NAME21":"Australia","AREASQKM21":1.1078,"LOCI_URI21":"http://linked.data.gov.au/dataset/asgsed3/SAL/30209","SHAPE_Leng":0.056291165744,"SHAPE_Area":0.0000951769557676,"fill":"#9c755f"},"geometry":{"type":"Point","coordinates":[146.79304000000002,-19.24774]}},{"type":"Feature","properties":{"SAL_CODE21":"30210","SAL_NAME21":"Belivah","STE_CODE21":"3","STE_NAME21":"Queensland","AUS_CODE21":"AUS","AUS_NAME21":"Australia","AREASQKM21":3.3475,"LOCI_URI21":"http://linked.data.gov.au/dataset/asgsed3/SAL/30210","SHAPE_Leng":0.073548069993,"SHAPE_Area":0.000306435588385,"fill":"#edc949"},"geometry":{"type":"Point","coordinates":[153.174805,-27.758585]}},{"type":"Feature","properties":{"SAL_CODE21":"30211","SAL_NAME21":"Bell (Qld)","STE_CODE21":"3","STE_NAME21":"Queensland","AUS_CODE21":"AUS","AUS_NAME21":"Australia","AREASQKM21":128.8275,"LOCI_URI21":"http://linked.data.gov.au/dataset/asgsed3/SAL/30211","SHAPE_Leng":0.595907833549,"SHAPE_Area":0.0117060783818,"fill":"#59a14f"},"geometry":{"type":"Point","coordinates":[151.43793,-26.916415]}},{"type":"Feature","properties":{"SAL_CODE21":"30212","SAL_NAME21":"Bella Creek","STE_CODE21":"3","STE_NAME21":"Queensland","AUS_CODE21":"AUS","AUS_NAME21":"Australia","AREASQKM21":27.7679,"LOCI_URI21":"http://linked.data.gov.au/dataset/asgsed3/SAL/30212","SHAPE_Leng":0.267158785407,"SHAPE_Area":0.002513592005,"fill":"#f28e2c"},"geometry":{"type":"Point","coordinates":[152.55159,-26.478465]}},{"type":"Feature","properties":{"SAL_CODE21":"30213","SAL_NAME21":"Bellara","STE_CODE21":"3","STE_NAME21":"Queensland","AUS_CODE21":"AUS","AUS_NAME21":"Australia","AREASQKM21":2.1193,"LOCI_URI21":"http://linked.data.gov.au/dataset/asgsed3/SAL/30213","SHAPE_Leng":0.0686667412207,"SHAPE_Area":0.000192777619185,"fill":"#9c755f"},"geometry":{"type":"Point","coordinates":[153.14917,-27.061275]}},{"type":"Feature","properties":{"SAL_CODE21":"30214","SAL_NAME21":"Bellbird Park","STE_CODE21":"3","STE_NAME21":"Queensland","AUS_CODE21":"AUS","AUS_NAME21":"Australia","AREASQKM21":6.5085,"LOCI_URI21":"http://linked.data.gov.au/dataset/asgsed3/SAL/30214","SHAPE_Leng":0.134899100967,"SHAPE_Area":0.000595124036077,"fill":"#59a14f"},"geometry":{"type":"Point","coordinates":[152.88914,-27.638605]}},{"type":"Feature","properties":{"SAL_CODE21":"30215","SAL_NAME21":"Bellbowrie","STE_CODE21":"3","STE_NAME21":"Queensland","AUS_CODE21":"AUS","AUS_NAME21":"Australia","AREASQKM21":5.7768,"LOCI_URI21":"http://linked.data.gov.au/dataset/asgsed3/SAL/30215","SHAPE_Leng":0.138457776403,"SHAPE_Area":0.000527855334666,"fill":"#e15759"},"geometry":{"type":"Point","coordinates":[152.883425,-27.558345]}},{"type":"Feature","properties":{"SAL_CODE21":"30216","SAL_NAME21":"Bellenden Ker","STE_CODE21":"3","STE_NAME21":"Queensland","AUS_CODE21":"AUS","AUS_NAME21":"Australia","AREASQKM21":31.7123,"LOCI_URI21":"http://linked.data.gov.au/dataset/asgsed3/SAL/30216","SHAPE_Leng":0.270772596847,"SHAPE_Area":0.00269488576607,"fill":"#9c755f"},"geometry":{"type":"Point","coordinates":[145.92848500000002,-17.275725]}},{"type":"Feature","properties":{"SAL_CODE21":"30217","SAL_NAME21":"Bellevue (Qld)","STE_CODE21":"3","STE_NAME21":"Queensland","AUS_CODE21":"AUS","AUS_NAME21":"Australia","AREASQKM21":981.1362,"LOCI_URI21":"http://linked.data.gov.au/dataset/asgsed3/SAL/30217","SHAPE_Leng":1.28285260924,"SHAPE_Area":0.0831001038925,"fill":"#af7aa1"},"geometry":{"type":"Point","coordinates":[144.26359000000002,-16.645319999999998]}},{"type":"Feature","properties":{"SAL_CODE21":"30218","SAL_NAME21":"Bellfield (Qld)","STE_CODE21":"3","STE_NAME21":"Queensland","AUS_CODE21":"AUS","AUS_NAME21":"Australia","AREASQKM21":3148.373,"LOCI_URI21":"http://linked.data.gov.au/dataset/asgsed3/SAL/30218","SHAPE_Leng":3.09135300087,"SHAPE_Area":0.270711538488,"fill":"#76b7b2"},"geometry":{"type":"Point","coordinates":[143.119145,-19.34923]}},{"type":"Feature","properties":{"SAL_CODE21":"30219","SAL_NAME21":"Belli Park","STE_CODE21":"3","STE_NAME21":"Queensland","AUS_CODE21":"AUS","AUS_NAME21":"Australia","AREASQKM21":83.3925,"LOCI_URI21":"http://linked.data.gov.au/dataset/asgsed3/SAL/30219","SHAPE_Leng":0.57849971004,"SHAPE_Area":0.00755061911745,"fill":"#9c755f"},"geometry":{"type":"Point","coordinates":[152.818755,-26.50933]}},{"type":"Feature","properties":{"SAL_CODE21":"30220","SAL_NAME21":"Bellmere","STE_CODE21":"3","STE_NAME21":"Queensland","AUS_CODE21":"AUS","AUS_NAME21":"Australia","AREASQKM21":23.6699,"LOCI_URI21":"http://linked.data.gov.au/dataset/asgsed3/SAL/30220","SHAPE_Leng":0.337184130236,"SHAPE_Area":0.00215384263744,"fill":"#bab0ab"},"geometry":{"type":"Point","coordinates":[152.88966,-27.079050000000002]}},{"type":"Feature","properties":{"SAL_CODE21":"30221","SAL_NAME21":"Bells Bridge","STE_CODE21":"3","STE_NAME21":"Queensland","AUS_CODE21":"AUS","AUS_NAME21":"Australia","AREASQKM21":49.8143,"LOCI_URI21":"http://linked.data.gov.au/dataset/asgsed3/SAL/30221","SHAPE_Leng":0.51773472451,"SHAPE_Area":0.00449594140777,"fill":"#e15759"},"geometry":{"type":"Point","coordinates":[152.542355,-26.126635]}},{"type":"Feature","properties":{"SAL_CODE21":"30222","SAL_NAME21":"Bells Creek","STE_CODE21":"3","STE_NAME21":"Queensland","AUS_CODE21":"AUS","AUS_NAME21":"Australia","AREASQKM21":24.8602,"LOCI_URI21":"http://linked.data.gov.au/dataset/asgsed3/SAL/30222","SHAPE_Leng":0.341993955147,"SHAPE_Area":0.00225710678796,"fill":"#9c755f"},"geometry":{"type":"Point","coordinates":[153.063855,-26.825985]}},{"type":"Feature","properties":{"SAL_CODE21":"30223","SAL_NAME21":"Bellthorpe","STE_CODE21":"3","STE_NAME21":"Queensland","AUS_CODE21":"AUS","AUS_NAME21":"Australia","AREASQKM21":74.2013,"LOCI_URI21":"http://linked.data.gov.au/dataset/asgsed3/SAL/30223","SHAPE_Leng":0.527514063298,"SHAPE_Area":0.00673824442465,"fill":"#e15759"},"geometry":{"type":"Point","coordinates":[152.724245,-26.856085]}},{"type":"Feature","properties":{"SAL_CODE21":"30224","SAL_NAME21":"Belmont (Qld)","STE_CODE21":"3","STE_NAME21":"Queensland","AUS_CODE21":"AUS","AUS_NAME21":"Australia","AREASQKM21":9.7744,"LOCI_URI21":"http://linked.data.gov.au/dataset/asgsed3/SAL/30224","SHAPE_Leng":0.174673762204,"SHAPE_Area":0.000892770337328,"fill":"#59a14f"},"geometry":{"type":"Point","coordinates":[153.13482,-27.507170000000002]}},{"type":"Feature","properties":{"SAL_CODE21":"30225","SAL_NAME21":"Belmunda","STE_CODE21":"3","STE_NAME21":"Queensland","AUS_CODE21":"AUS","AUS_NAME21":"Australia","AREASQKM21":3.5648,"LOCI_URI21":"http://linked.data.gov.au/dataset/asgsed3/SAL/30225","SHAPE_Leng":0.102678245185,"SHAPE_Area":0.000309578714924,"fill":"#f28e2c"},"geometry":{"type":"Point","coordinates":[149.0156,-20.94892]}},{"type":"Feature","properties":{"SAL_CODE21":"30226","SAL_NAME21":"Belvedere","STE_CODE21":"3","STE_NAME21":"Queensland","AUS_CODE21":"AUS","AUS_NAME21":"Australia","AREASQKM21":2.1059,"LOCI_URI21":"http://linked.data.gov.au/dataset/asgsed3/SAL/30226","SHAPE_Leng":0.0638063261045,"SHAPE_Area":0.00017918984249,"fill":"#e15759"},"geometry":{"type":"Point","coordinates":[145.987375,-17.5235]}},{"type":"Feature","properties":{"SAL_CODE21":"30227","SAL_NAME21":"Belyando","STE_CODE21":"3","STE_NAME21":"Queensland","AUS_CODE21":"AUS","AUS_NAME21":"Australia","AREASQKM21":5447.2951,"LOCI_URI21":"http://linked.data.gov.au/dataset/asgsed3/SAL/30227","SHAPE_Leng":4.12048170547,"SHAPE_Area":0.475759674378,"fill":"#4e79a7"},"geometry":{"type":"Point","coordinates":[146.610165,-21.848865]}},{"type":"Feature","properties":{"SAL_CODE21":"30228","SAL_NAME21":"Bemerside","STE_CODE21":"3","STE_NAME21":"Queensland","AUS_CODE21":"AUS","AUS_NAME21":"Australia","AREASQKM21":50.5599,"LOCI_URI21":"http://linked.data.gov.au/dataset/asgsed3/SAL/30228","SHAPE_Leng":0.378723949841,"SHAPE_Area":0.00432698796763,"fill":"#4e79a7"},"geometry":{"type":"Point","coordinates":[146.19466,-18.55681]}},{"type":"Feature","properties":{"SAL_CODE21":"30229","SAL_NAME21":"Benair","STE_CODE21":"3","STE_NAME21":"Queensland","AUS_CODE21":"AUS","AUS_NAME21":"Australia","AREASQKM21":56.5636,"LOCI_URI21":"http://linked.data.gov.au/dataset/asgsed3/SAL/30229","SHAPE_Leng":0.411069929445,"SHAPE_Area":0.00512669653263,"fill":"#76b7b2"},"geometry":{"type":"Point","coordinates":[151.69556,-26.635505]}},{"type":"Feature","properties":{"SAL_CODE21":"30230","SAL_NAME21":"Benaraby","STE_CODE21":"3","STE_NAME21":"Queensland","AUS_CODE21":"AUS","AUS_NAME21":"Australia","AREASQKM21":105.6845,"LOCI_URI21":"http://linked.data.gov.au/dataset/asgsed3/SAL/30230","SHAPE_Leng":0.540135679334,"SHAPE_Area":0.00938078057981,"fill":"#af7aa1"},"geometry":{"type":"Point","coordinates":[151.31211000000002,-24.04901]}},{"type":"Feature","properties":{"SAL_CODE21":"30231","SAL_NAME21":"Benarkin","STE_CODE21":"3","STE_NAME21":"Queensland","AUS_CODE21":"AUS","AUS_NAME21":"Australia","AREASQKM21":4.3535,"LOCI_URI21":"http://linked.data.gov.au/dataset/asgsed3/SAL/30231","SHAPE_Leng":0.140996529161,"SHAPE_Area":0.000395473394608,"fill":"#ff9da7"},"geometry":{"type":"Point","coordinates":[152.13036499999998,-26.888755]}},{"type":"Feature","properties":{"SAL_CODE21":"30232","SAL_NAME21":"Benarkin North","STE_CODE21":"3","STE_NAME21":"Queensland","AUS_CODE21":"AUS","AUS_NAME21":"Australia","AREASQKM21":12.8125,"LOCI_URI21":"http://linked.data.gov.au/dataset/asgsed3/SAL/30232","SHAPE_Leng":0.177537931133,"SHAPE_Area":0.00116351890891,"fill":"#4e79a7"},"geometry":{"type":"Point","coordinates":[152.15112499999998,-26.855494999999998]}},{"type":"Feature","properties":{"SAL_CODE21":"30233","SAL_NAME21":"Benholme","STE_CODE21":"3","STE_NAME21":"Queensland","AUS_CODE21":"AUS","AUS_NAME21":"Australia","AREASQKM21":28.5097,"LOCI_URI21":"http://linked.data.gov.au/dataset/asgsed3/SAL/30233","SHAPE_Leng":0.25308899136,"SHAPE_Area":0.00247930305405,"fill":"#4e79a7"},"geometry":{"type":"Point","coordinates":[148.807175,-21.160125]}},{"type":"Feature","properties":{"SAL_CODE21":"30234","SAL_NAME21":"Benobble","STE_CODE21":"3","STE_NAME21":"Queensland","AUS_CODE21":"AUS","AUS_NAME21":"Australia","AREASQKM21":10.6513,"LOCI_URI21":"http://linked.data.gov.au/dataset/asgsed3/SAL/30234","SHAPE_Leng":0.176061663299,"SHAPE_Area":0.000977060581798,"fill":"#ff9da7"},"geometry":{"type":"Point","coordinates":[153.161085,-27.990755]}},{"type":"Feature","properties":{"SAL_CODE21":"30235","SAL_NAME21":"Benowa","STE_CODE21":"3","STE_NAME21":"Queensland","AUS_CODE21":"AUS","AUS_NAME21":"Australia","AREASQKM21":6.5536,"LOCI_URI21":"http://linked.data.gov.au/dataset/asgsed3/SAL/30235","SHAPE_Leng":0.130099304655,"SHAPE_Area":0.000601205376574,"fill":"#4e79a7"},"geometry":{"type":"Point","coordinates":[153.38227999999998,-28.01059]}},{"type":"Feature","properties":{"SAL_CODE21":"30236","SAL_NAME21":"Bentley Park","STE_CODE21":"3","STE_NAME21":"Queensland","AUS_CODE21":"AUS","AUS_NAME21":"Australia","AREASQKM21":6.8595,"LOCI_URI21":"http://linked.data.gov.au/dataset/asgsed3/SAL/30236","SHAPE_Leng":0.130138355599,"SHAPE_Area":0.000582081303363,"fill":"#f28e2c"},"geometry":{"type":"Point","coordinates":[145.724315,-17.009595]}},{"type":"Feature","properties":{"SAL_CODE21":"30237","SAL_NAME21":"Berajondo","STE_CODE21":"3","STE_NAME21":"Queensland","AUS_CODE21":"AUS","AUS_NAME21":"Australia","AREASQKM21":114.1433,"LOCI_URI21":"http://linked.data.gov.au/dataset/asgsed3/SAL/30237","SHAPE_Leng":0.564016623288,"SHAPE_Area":0.0101779185213,"fill":"#f28e2c"},"geometry":{"type":"Point","coordinates":[151.794035,-24.63557]}},{"type":"Feature","properties":{"SAL_CODE21":"30238","SAL_NAME21":"Berat","STE_CODE21":"3","STE_NAME21":"Queensland","AUS_CODE21":"AUS","AUS_NAME21":"Australia","AREASQKM21":35.2188,"LOCI_URI21":"http://linked.data.gov.au/dataset/asgsed3/SAL/30238","SHAPE_Leng":0.317294824698,"SHAPE_Area":0.00323247398627,"fill":"#f28e2c"},"geometry":{"type":"Point","coordinates":[152.06081,-28.044674999999998]}},{"type":"Feature","properties":{"SAL_CODE21":"30239","SAL_NAME21":"Bergen","STE_CODE21":"3","STE_NAME21":"Queensland","AUS_CODE21":"AUS","AUS_NAME21":"Australia","AREASQKM21":19.6122,"LOCI_URI21":"http://linked.data.gov.au/dataset/asgsed3/SAL/30239","SHAPE_Leng":0.243777425648,"SHAPE_Area":0.0017872702343,"fill":"#e15759"},"geometry":{"type":"Point","coordinates":[151.90517,-27.255074999999998]}},{"type":"Feature","properties":{"SAL_CODE21":"30240","SAL_NAME21":"Berrinba","STE_CODE21":"3","STE_NAME21":"Queensland","AUS_CODE21":"AUS","AUS_NAME21":"Australia","AREASQKM21":5.0701,"LOCI_URI21":"http://linked.data.gov.au/dataset/asgsed3/SAL/30240","SHAPE_Leng":0.134874920086,"SHAPE_Area":0.000463717532893,"fill":"#76b7b2"},"geometry":{"type":"Point","coordinates":[153.083415,-27.66063]}},{"type":"Feature","properties":{"SAL_CODE21":"30241","SAL_NAME21":"Berserker","STE_CODE21":"3","STE_NAME21":"Queensland","AUS_CODE21":"AUS","AUS_NAME21":"Australia","AREASQKM21":4.7074,"LOCI_URI21":"http://linked.data.gov.au/dataset/asgsed3/SAL/30241","SHAPE_Leng":0.106026010767,"SHAPE_Area":0.000415760519067,"fill":"#edc949"},"geometry":{"type":"Point","coordinates":[150.527985,-23.36472]}},{"type":"Feature","properties":{"SAL_CODE21":"30242","SAL_NAME21":"Bethania","STE_CODE21":"3","STE_NAME21":"Queensland","AUS_CODE21":"AUS","AUS_NAME21":"Australia","AREASQKM21":5.8367,"LOCI_URI21":"http://linked.data.gov.au/dataset/asgsed3/SAL/30242","SHAPE_Leng":0.135711026728,"SHAPE_Area":0.000533922632288,"fill":"#af7aa1"},"geometry":{"type":"Point","coordinates":[153.154895,-27.688045000000002]}},{"type":"Feature","properties":{"SAL_CODE21":"30243","SAL_NAME21":"Biarra","STE_CODE21":"3","STE_NAME21":"Queensland","AUS_CODE21":"AUS","AUS_NAME21":"Australia","AREASQKM21":234.8329,"LOCI_URI21":"http://linked.data.gov.au/dataset/asgsed3/SAL/30243","SHAPE_Leng":0.999710693745,"SHAPE_Area":0.021390690953,"fill":"#76b7b2"},"geometry":{"type":"Point","coordinates":[152.27976999999998,-27.19648]}},{"type":"Feature","properties":{"SAL_CODE21":"30244","SAL_NAME21":"Biboohra","STE_CODE21":"3","STE_NAME21":"Queensland","AUS_CODE21":"AUS","AUS_NAME21":"Australia","AREASQKM21":145.967,"LOCI_URI21":"http://linked.data.gov.au/dataset/asgsed3/SAL/30244","SHAPE_Leng":0.676271309239,"SHAPE_Area":0.0123776395716,"fill":"#af7aa1"},"geometry":{"type":"Point","coordinates":[145.427855,-16.851635]}},{"type":"Feature","properties":{"SAL_CODE21":"30245","SAL_NAME21":"Biddaddaba","STE_CODE21":"3","STE_NAME21":"Queensland","AUS_CODE21":"AUS","AUS_NAME21":"Australia","AREASQKM21":42.2452,"LOCI_URI21":"http://linked.data.gov.au/dataset/asgsed3/SAL/30245","SHAPE_Leng":0.259917730352,"SHAPE_Area":0.00387553452358,"fill":"#af7aa1"},"geometry":{"type":"Point","coordinates":[153.108595,-27.99537]}},{"type":"Feature","properties":{"SAL_CODE21":"30246","SAL_NAME21":"Biddeston","STE_CODE21":"3","STE_NAME21":"Queensland","AUS_CODE21":"AUS","AUS_NAME21":"Australia","AREASQKM21":74.1045,"LOCI_URI21":"http://linked.data.gov.au/dataset/asgsed3/SAL/30246","SHAPE_Leng":0.389706698373,"SHAPE_Area":0.00677119484011,"fill":"#edc949"},"geometry":{"type":"Point","coordinates":[151.73532,-27.55929]}},{"type":"Feature","properties":{"SAL_CODE21":"30247","SAL_NAME21":"Bidwill (Qld)","STE_CODE21":"3","STE_NAME21":"Queensland","AUS_CODE21":"AUS","AUS_NAME21":"Australia","AREASQKM21":33.4571,"LOCI_URI21":"http://linked.data.gov.au/dataset/asgsed3/SAL/30247","SHAPE_Leng":0.320471984375,"SHAPE_Area":0.00300661078614,"fill":"#bab0ab"},"geometry":{"type":"Point","coordinates":[152.70959499999998,-25.602045]}},{"type":"Feature","properties":{"SAL_CODE21":"30248","SAL_NAME21":"Biggenden","STE_CODE21":"3","STE_NAME21":"Queensland","AUS_CODE21":"AUS","AUS_NAME21":"Australia","AREASQKM21":219.3505,"LOCI_URI21":"http://linked.data.gov.au/dataset/asgsed3/SAL/30248","SHAPE_Leng":0.847583197335,"SHAPE_Area":0.0197061498339,"fill":"#af7aa1"},"geometry":{"type":"Point","coordinates":[151.99146,-25.561915]}},{"type":"Feature","properties":{"SAL_CODE21":"30249","SAL_NAME21":"Biggera Waters","STE_CODE21":"3","STE_NAME21":"Queensland","AUS_CODE21":"AUS","AUS_NAME21":"Australia","AREASQKM21":3.1748,"LOCI_URI21":"http://linked.data.gov.au/dataset/asgsed3/SAL/30249","SHAPE_Leng":0.0894333759384,"SHAPE_Area":0.000291057998862,"fill":"#e15759"},"geometry":{"type":"Point","coordinates":[153.39107,-27.92992]}},